[
  { "city": "Jakarta", "lat": "-6.2146", "lng": "106.8451", "country": "Indonesia", "iso2": "ID", "province": "Jakarta", "population": "34540000", "population_proper": "10154134" },
  { "city": "Surabaya", "lat": "-7.2458", "lng": "112.7378", "country": "Indonesia", "iso2": "ID", "province": "Jawa Timur", "population": "4975000", "population_proper": "4975000" },
  { "city": "Bandung", "lat": "-6.9500", "lng": "107.5667", "country": "Indonesia", "iso2": "ID", "province": "Jawa Barat", "population": "2394873", "population_proper": "2394873" },
  { "city": "Bekasi", "lat": "-6.2333", "lng": "107.0000", "country": "Indonesia", "iso2": "ID", "province": "Jawa Barat", "population": "2381053", "population_proper": "2381053" },
  { "city": "Tangerang", "lat": "-6.1783", "lng": "106.6319", "country": "Indonesia", "iso2": "ID", "province": "Jawa Barat", "population": "2237006", "population_proper": "2237006" },
  { "city": "Medan", "lat": "3.6667", "lng": "98.6667", "country": "Indonesia", "iso2": "ID", "province": "Sumatera Utara", "population": "2210625", "population_proper": "2210625" },
  { "city": "Makassar", "lat": "-5.1331", "lng": "119.4136", "country": "Indonesia", "iso2": "ID", "province": "Sulawesi Selatan", "population": "1651146", "population_proper": "1651146" },
  { "city": "Depok", "lat": "-6.3940", "lng": "106.8225", "country": "Indonesia", "iso2": "ID", "province": "Jawa Barat", "population": "1631951", "population_proper": "1631951" },
  { "city": "Semarang", "lat": "-6.9667", "lng": "110.4167", "country": "Indonesia", "iso2": "ID", "province": "Jawa Tengah", "population": "1621384", "population_proper": "1621384" },
  { "city": "Palembang", "lat": "-2.9833", "lng": "104.7644", "country": "Indonesia", "iso2": "ID", "province": "Sumatera Selatan", "population": "1452456", "population_proper": "1452456" },
  { "city": "Cilacap", "lat": "-7.7167", "lng": "109.0170", "country": "Indonesia", "iso2": "ID", "province": "Jawa Tengah", "population": "1174964", "population_proper": "1174964" },
  { "city": "Bandar Lampung", "lat": "-5.4294", "lng": "105.2625", "country": "Indonesia", "iso2": "ID", "province": "Lampung", "population": "1166761", "population_proper": "1166761" },
  { "city": "Bogor", "lat": "-6.6000", "lng": "106.8000", "country": "Indonesia", "iso2": "ID", "province": "Jawa Barat", "population": "1030720", "population_proper": "1030720" },
  { "city": "Patam", "lat": "1.0678", "lng": "104.0167", "country": "Indonesia", "iso2": "ID", "province": "Kepulauan Riau", "population": "1029808", "population_proper": "1029808" },
  { "city": "Padang", "lat": "-0.9556", "lng": "100.3606", "country": "Indonesia", "iso2": "ID", "province": "Sumatera Barat", "population": "914970", "population_proper": "914970" },
  { "city": "Pekanbaru", "lat": "0.5333", "lng": "101.4500", "country": "Indonesia", "iso2": "ID", "province": "Riau", "population": "855221", "population_proper": "855221" },
  { "city": "Denpasar", "lat": "-8.6667", "lng": "115.2167", "country": "Indonesia", "iso2": "ID", "province": "Bali", "population": "834881", "population_proper": "834881" },
  { "city": "Malang", "lat": "-7.9800", "lng": "112.6200", "country": "Indonesia", "iso2": "ID", "province": "Jawa Timur", "population": "780000", "population_proper": "780000" },
  { "city": "Samarinda", "lat": "-0.5022", "lng": "117.1536", "country": "Indonesia", "iso2": "ID", "province": "Kalimantan Timur", "population": "753370", "population_proper": "753370" },
  { "city": "Banjarmasin", "lat": "-3.3333", "lng": "114.5833", "country": "Indonesia", "iso2": "ID", "province": "Kalimantan Selatan", "population": "692793", "population_proper": "692793" },
  { "city": "Tasikmalaya", "lat": "-7.3333", "lng": "108.2000", "country": "Indonesia", "iso2": "ID", "province": "Jawa Barat", "population": "678027", "population_proper": "678027" },
  { "city": "Pontianak", "lat": "-0.0206", "lng": "109.3414", "country": "Indonesia", "iso2": "ID", "province": "Kalimantan Barat", "population": "618388", "population_proper": "618388" },
  { "city": "Serang", "lat": "-6.1200", "lng": "106.1503", "country": "Indonesia", "iso2": "ID", "province": "Banten", "population": "613356", "population_proper": "613356" },
  { "city": "Jambi", "lat": "-1.5900", "lng": "103.6100", "country": "Indonesia", "iso2": "ID", "province": "Jambi", "population": "602187", "population_proper": "602187" },
  { "city": "Balikpapan", "lat": "-1.1489", "lng": "116.9031", "country": "Indonesia", "iso2": "ID", "province": "Kalimantan Timur", "population": "598043", "population_proper": "598043" },
  { "city": "Cimahi", "lat": "-6.8833", "lng": "107.5333", "country": "Indonesia", "iso2": "ID", "province": "Jawa Barat", "population": "586580", "population_proper": "586580" },
  { "city": "Surakarta", "lat": "-7.5667", "lng": "110.8167", "country": "Indonesia", "iso2": "ID", "province": "Jawa Tengah", "population": "552118", "population_proper": "552118" },
  { "city": "Manado", "lat": "1.4931", "lng": "124.8413", "country": "Indonesia", "iso2": "ID", "province": "Sulawesi Utara", "population": "461636", "population_proper": "461636" },
  { "city": "Kupang", "lat": "-10.1633", "lng": "123.5778", "country": "Indonesia", "iso2": "ID", "province": "Nusa Tenggara Timur", "population": "433970", "population_proper": "433970" },
  { "city": "Yogyakarta", "lat": "-7.8014", "lng": "110.3644", "country": "Indonesia", "iso2": "ID", "province": "Yogyakarta", "population": "422732", "population_proper": "422732" },
  { "city": "Jayapura", "lat": "-2.5333", "lng": "140.7167", "country": "Indonesia", "iso2": "ID", "province": "Papua", "population": "413283", "population_proper": "413283" },
  { "city": "Mataram", "lat": "-8.5833", "lng": "116.1167", "country": "Indonesia", "iso2": "ID", "province": "Nusa Tenggara Barat", "population": "408900", "population_proper": "408900" },
  { "city": "Cilegon", "lat": "-6.0027", "lng": "106.0112", "country": "Indonesia", "iso2": "ID", "province": "Banten", "population": "387543", "population_proper": "387543" },
  { "city": "Ambon", "lat": "-3.7050", "lng": "128.1700", "country": "Indonesia", "iso2": "ID", "province": "Maluku", "population": "372249", "population_proper": "372249" },
  { "city": "Bengkulu", "lat": "-3.7956", "lng": "102.2592", "country": "Indonesia", "iso2": "ID", "province": "Bengkulu", "population": "360495", "population_proper": "360495" },
  { "city": "Palu", "lat": "-0.8950", "lng": "119.8594", "country": "Indonesia", "iso2": "ID", "province": "Sulawesi Tengah", "population": "359350", "population_proper": "359350" },
  { "city": "Kendari", "lat": "-3.9675", "lng": "122.5947", "country": "Indonesia", "iso2": "ID", "province": "Sulawesi Tenggara", "population": "331013", "population_proper": "331013" },
  { "city": "Sukabumi", "lat": "-6.9197", "lng": "106.9272", "country": "Indonesia", "iso2": "ID", "province": "Jawa Barat", "population": "320970", "population_proper": "320970" },
  { "city": "Cirebon", "lat": "-6.7167", "lng": "108.5667", "country": "Indonesia", "iso2": "ID", "province": "Jawa Barat", "population": "316126", "population_proper": "316126" },
  { "city": "Jember", "lat": "-8.1727", "lng": "113.6873", "country": "Indonesia", "iso2": "ID", "province": "Jawa Timur", "population": "298585", "population_proper": "298585" },
  { "city": "Pekalongan", "lat": "-6.8883", "lng": "109.6753", "country": "Indonesia", "iso2": "ID", "province": "Jawa Tengah", "population": "298386", "population_proper": "298386" },
  { "city": "Pematangsiantar", "lat": "2.9600", "lng": "99.0600", "country": "Indonesia", "iso2": "ID", "province": "Sumatera Utara", "population": "278055", "population_proper": "278055" },
  { "city": "Tegal", "lat": "-6.8667", "lng": "109.1333", "country": "Indonesia", "iso2": "ID", "province": "Jawa Tengah", "population": "275789", "population_proper": "275789" },
  { "city": "Majene", "lat": "-3.5336", "lng": "118.9660", "country": "Indonesia", "iso2": "ID", "province": "Sulawesi Barat", "population": "272377", "population_proper": "37715" },
  { "city": "Sorong", "lat": "-0.8667", "lng": "131.2500", "country": "Indonesia", "iso2": "ID", "province": "Papua Barat", "population": "272349", "population_proper": "272349" },
  { "city": "Binjai", "lat": "3.6000", "lng": "98.4853", "country": "Indonesia", "iso2": "ID", "province": "Sumatera Utara", "population": "269053", "population_proper": "269053" },
  { "city": "Dumai", "lat": "1.6667", "lng": "101.4500", "country": "Indonesia", "iso2": "ID", "province": "Riau", "population": "264084", "population_proper": "264084" },
  { "city": "Kediri", "lat": "-7.8166", "lng": "112.0119", "country": "Indonesia", "iso2": "ID", "province": "Jawa Timur", "population": "252000", "population_proper": "252000" },
  { "city": "Palangkaraya", "lat": "-2.2100", "lng": "113.9200", "country": "Indonesia", "iso2": "ID", "province": "Kalimantan Tengah", "population": "249434", "population_proper": "249434" },
  { "city": "Banda Aceh", "lat": "5.5500", "lng": "95.3175", "country": "Indonesia", "iso2": "ID", "province": "Aceh", "population": "235305", "population_proper": "235305" },
  { "city": "Singaraja", "lat": "-8.1152", "lng": "115.0944", "country": "Indonesia", "iso2": "ID", "province": "Bali", "population": "234468", "population_proper": "133784" },
  { "city": "Singkawang", "lat": "0.9000", "lng": "108.9833", "country": "Indonesia", "iso2": "ID", "province": "Kalimantan Barat", "population": "230376", "population_proper": "230376" },
  { "city": "Padangsidempuan", "lat": "1.3667", "lng": "99.2667", "country": "Indonesia", "iso2": "ID", "province": "Sumatera Utara", "population": "225544", "population_proper": "225544" },
  { "city": "Tanjungpinang", "lat": "0.9188", "lng": "104.4554", "country": "Indonesia", "iso2": "ID", "province": "Kepulauan Riau", "population": "203008", "population_proper": "203008" },
  { "city": "Martapura", "lat": "-3.4135", "lng": "114.8365", "country": "Indonesia", "iso2": "ID", "province": "Kalimantan Selatan", "population": "198239", "population_proper": "131449" },
  { "city": "Gorontalo", "lat": "0.5411", "lng": "123.0594", "country": "Indonesia", "iso2": "ID", "province": "Gorontalo", "population": "191897", "population_proper": "191897" },
  { "city": "Prabumulih", "lat": "-3.4328", "lng": "104.2356", "country": "Indonesia", "iso2": "ID", "province": "Sumatera Selatan", "population": "188082", "population_proper": "188082" },
  { "city": "Banjar", "lat": "-7.3667", "lng": "108.5333", "country": "Indonesia", "iso2": "ID", "province": "Jawa Barat", "population": "182819", "population_proper": "182819" },
  { "city": "Pinrang", "lat": "-3.7857", "lng": "119.6522", "country": "Indonesia", "iso2": "ID", "province": "Sulawesi Selatan", "population": "182731", "population_proper": "182731" },
  { "city": "Banyuwangi", "lat": "-8.1950", "lng": "114.3696", "country": "Indonesia", "iso2": "ID", "province": "Jawa Timur", "population": "172424", "population_proper": "108166" },
  { "city": "Gunungsitoli", "lat": "1.1167", "lng": "97.5667", "country": "Indonesia", "iso2": "ID", "province": "Sumatera Utara", "population": "137104", "population_proper": "137104" },
  { "city": "Pageralam", "lat": "-4.0217", "lng": "103.2522", "country": "Indonesia", "iso2": "ID", "province": "Sumatera Selatan", "population": "136244", "population_proper": "136244" },
  { "city": "Pangkalpinang", "lat": "-2.1000", "lng": "106.1000", "country": "Indonesia", "iso2": "ID", "province": "Kepulauan Bangka Belitung", "population": "125933", "population_proper": "73638" },
  { "city": "Indramayu", "lat": "-6.3356", "lng": "108.3190", "country": "Indonesia", "iso2": "ID", "province": "Jawa Barat", "population": "123263", "population_proper": "123263" },
  { "city": "Pati", "lat": "-6.7415", "lng": "111.0347", "country": "Indonesia", "iso2": "ID", "province": "Jawa Tengah", "population": "122785", "population_proper": "122785" },
  { "city": "Raba", "lat": "-8.4614", "lng": "118.7470", "country": "Indonesia", "iso2": "ID", "province": "Nusa Tenggara Barat", "population": "106101", "population_proper": "106101" },
  { "city": "Maumere", "lat": "-8.6189", "lng": "122.2123", "country": "Indonesia", "iso2": "ID", "province": "Nusa Tenggara Timur", "population": "104285", "population_proper": "47598" },
  { "city": "Biak", "lat": "-1.1615", "lng": "136.0485", "country": "Indonesia", "iso2": "ID", "province": "Papua", "population": "103610", "population_proper": "103610" },
  { "city": "Tomohon", "lat": "1.3244", "lng": "124.8225", "country": "Indonesia", "iso2": "ID", "province": "Sulawesi Utara", "population": "96411", "population_proper": "96411" },
  { "city": "Sampit", "lat": "-2.5329", "lng": "112.9500", "country": "Indonesia", "iso2": "ID", "province": "Kalimantan Tengah", "population": "92710", "population_proper": "66053" },
  { "city": "Pariaman", "lat": "-0.6261", "lng": "100.1206", "country": "Indonesia", "iso2": "ID", "province": "Sumatera Barat", "population": "85485", "population_proper": "85485" },
  { "city": "Sumenep", "lat": "-7.0049", "lng": "113.8496", "country": "Indonesia", "iso2": "ID", "province": "Jawa Timur", "population": "84656", "population_proper": "84656" },
  { "city": "Watampone", "lat": "-4.5328", "lng": "120.3334", "country": "Indonesia", "iso2": "ID", "province": "Sulawesi Selatan", "population": "81629", "population_proper": "36277" },
  { "city": "Ende", "lat": "-8.8333", "lng": "121.6500", "country": "Indonesia", "iso2": "ID", "province": "Nusa Tenggara Timur", "population": "77205", "population_proper": "44655" },
  { "city": "Tuban", "lat": "-6.8995", "lng": "112.0500", "country": "Indonesia", "iso2": "ID", "province": "Jawa Timur", "population": "76242", "population_proper": "76242" },
  { "city": "Manokwari", "lat": "-0.8711", "lng": "134.0693", "country": "Indonesia", "iso2": "ID", "province": "Papua Barat", "population": "74504", "population_proper": "53190" },
  { "city": "Lahat", "lat": "-3.8000", "lng": "103.5333", "country": "Indonesia", "iso2": "ID", "province": "Sumatera Selatan", "population": "65906", "population_proper": "35033" },
  { "city": "Tanjungpandan", "lat": "-2.7500", "lng": "107.6500", "country": "Indonesia", "iso2": "ID", "province": "Kepulauan Bangka Belitung", "population": "62374", "population_proper": "60808" },
  { "city": "Ruteng", "lat": "-8.6118", "lng": "120.4698", "country": "Indonesia", "iso2": "ID", "province": "Nusa Tenggara Timur", "population": "53976", "population_proper": "34569" },
  { "city": "Waingapu", "lat": "-9.6582", "lng": "120.2530", "country": "Indonesia", "iso2": "ID", "province": "Nusa Tenggara Timur", "population": "48828", "population_proper": "23153" },
  { "city": "Luwuk", "lat": "-0.9396", "lng": "122.7900", "country": "Indonesia", "iso2": "ID", "province": "Sulawesi Tengah", "population": "47778", "population_proper": "39323" },
  { "city": "Amahai", "lat": "-3.3281", "lng": "128.9405", "country": "Indonesia", "iso2": "ID", "province": "Maluku", "population": "47653", "population_proper": "4692" },
  { "city": "Poso", "lat": "-1.3896", "lng": "120.7600", "country": "Indonesia", "iso2": "ID", "province": "Sulawesi Tengah", "population": "47110", "population_proper": "35904" },
  { "city": "Nabire", "lat": "-3.3515", "lng": "135.5134", "country": "Indonesia", "iso2": "ID", "province": "Papua", "population": "43898", "population_proper": "13771" },
  { "city": "Rantepao", "lat": "-2.9690", "lng": "119.9000", "country": "Indonesia", "iso2": "ID", "province": "Sulawesi Selatan", "population": "43123", "population_proper": "43123" },
  { "city": "Kuala Kapuas", "lat": "-3.0996", "lng": "114.3500", "country": "Indonesia", "iso2": "ID", "province": "Kalimantan Tengah", "population": "35632", "population_proper": "1393" },
  { "city": "Praya", "lat": "-8.7223", "lng": "116.2923", "country": "Indonesia", "iso2": "ID", "province": "Nusa Tenggara Barat", "population": "35183", "population_proper": "35183" },
  { "city": "Merauke", "lat": "-8.4932", "lng": "140.4018", "country": "Indonesia", "iso2": "ID", "province": "Papua", "population": "34412", "population_proper": "34412" },
  { "city": "Makale", "lat": "-3.0860", "lng": "119.8469", "country": "Indonesia", "iso2": "ID", "province": "Sulawesi Selatan", "population": "9960", "population_proper": "9960" },
  { "city": "Tarutung", "lat": "2.0171", "lng": "98.9667", "country": "Indonesia", "iso2": "ID", "province": "Sumatera Utara", "population": "1305", "population_proper": "1305" },
  { "city": "Bumiayu", "lat": "-8.0151", "lng": "112.6347", "country": "Indonesia", "iso2": "ID", "province": "Jawa Timur", "population": "", "population_proper": "" },
  { "city": "Gadang", "lat": "-8.0123", "lng": "112.6283", "country": "Indonesia", "iso2": "ID", "province": "Jawa Timur", "population": "", "population_proper": "" },
  { "city": "Kalisari", "lat": "-8.0234", "lng": "112.6483", "country": "Indonesia", "iso2": "ID", "province": "Jawa Timur", "population": "", "population_proper": "" },
  { "city": "Ploso", "lat": "-7.2522", "lng": "112.7633", "country": "Indonesia", "iso2": "ID", "province": "Jawa Timur", "population": "", "population_proper": "" },
  { "city": "Gubengairlangga", "lat": "-7.2729", "lng": "112.7573", "country": "Indonesia", "iso2": "ID", "province": "Jawa Timur", "population": "", "population_proper": "" },
  { "city": "Gubengkertajaya", "lat": "-7.2760", "lng": "112.7563", "country": "Indonesia", "iso2": "ID", "province": "Jawa Timur", "population": "", "population_proper": "" },
  { "city": "Panjangjiwo", "lat": "-7.3129", "lng": "112.7641", "country": "Indonesia", "iso2": "ID", "province": "Jawa Timur", "population": "", "population_proper": "" },
  { "city": "Kedungasem", "lat": "-7.3216", "lng": "112.7787", "country": "Indonesia", "iso2": "ID", "province": "Jawa Timur", "population": "", "population_proper": "" },
  { "city": "Wonorejo", "lat": "-7.3114", "lng": "112.7968", "country": "Indonesia", "iso2": "ID", "province": "Jawa Timur", "population": "", "population_proper": "" },
  { "city": "Mojo", "lat": "-7.2747", "lng": "112.7633", "country": "Indonesia", "iso2": "ID", "province": "Jawa Timur", "population": "", "population_proper": "" },
  { "city": "Medokanayu", "lat": "-7.3256", "lng": "112.7988", "country": "Indonesia", "iso2": "ID", "province": "Jawa Timur", "population": "", "population_proper": "" },
  { "city": "Prapen", "lat": "-7.3145", "lng": "112.7567", "country": "Indonesia", "iso2": "ID", "province": "Jawa Timur", "population": "", "population_proper": "" },
  { "city": "Jagirsidosermo", "lat": "-7.3068", "lng": "112.7545", "country": "Indonesia", "iso2": "ID", "province": "Jawa Timur", "population": "", "population_proper": "" },
  { "city": "Tenggilis Lama", "lat": "-7.3166", "lng": "112.7628", "country": "Indonesia", "iso2": "ID", "province": "Jawa Timur", "population": "", "population_proper": "" },
  { "city": "Tambakrejo", "lat": "-7.2472", "lng": "112.7558", "country": "Indonesia", "iso2": "ID", "province": "Jawa Timur", "population": "", "population_proper": "" },
  { "city": "Labansari", "lat": "-7.2597", "lng": "112.7913", "country": "Indonesia", "iso2": "ID", "province": "Jawa Timur", "population": "", "population_proper": "" },
  { "city": "Brongkalan", "lat": "-7.2575", "lng": "112.7674", "country": "Indonesia", "iso2": "ID", "province": "Jawa Timur", "population": "", "population_proper": "" },
  { "city": "Mulyorejo", "lat": "-7.2629", "lng": "112.7839", "country": "Indonesia", "iso2": "ID", "province": "Jawa Timur", "population": "", "population_proper": "" },
  { "city": "Semampir", "lat": "-7.3082", "lng": "112.7802", "country": "Indonesia", "iso2": "ID", "province": "Jawa Timur", "population": "", "population_proper": "" },
  { "city": "Pacarkeling", "lat": "-7.2580", "lng": "112.7581", "country": "Indonesia", "iso2": "ID", "province": "Jawa Timur", "population": "", "population_proper": "" },
  { "city": "Kenjeran", "lat": "-7.2252", "lng": "112.7708", "country": "Indonesia", "iso2": "ID", "province": "Jawa Timur", "population": "", "population_proper": "" },
  { "city": "Kepuh", "lat": "-8.0060", "lng": "112.6188", "country": "Indonesia", "iso2": "ID", "province": "Jawa Timur", "population": "", "population_proper": "" },
  { "city": "Gununganyar", "lat": "-7.3409", "lng": "112.7821", "country": "Indonesia", "iso2": "ID", "province": "Jawa Timur", "population": "", "population_proper": "" },
  { "city": "Gununganyartambak Tengah", "lat": "-7.3375", "lng": "112.8019", "country": "Indonesia", "iso2": "ID", "province": "Jawa Timur", "population": "", "population_proper": "" },
  { "city": "Selagalas", "lat": "-8.5811", "lng": "116.1436", "country": "Indonesia", "iso2": "ID", "province": "Nusa Tenggara Barat", "population": "", "population_proper": "" },
  { "city": "Sayang Lauq", "lat": "-8.5694", "lng": "116.1325", "country": "Indonesia", "iso2": "ID", "province": "Nusa Tenggara Barat", "population": "", "population_proper": "" },
  { "city": "Karangkecicang", "lat": "-8.5955", "lng": "116.1313", "country": "Indonesia", "iso2": "ID", "province": "Nusa Tenggara Barat", "population": "", "population_proper": "" },
  { "city": "Sindu", "lat": "-8.5832", "lng": "116.1351", "country": "Indonesia", "iso2": "ID", "province": "Nusa Tenggara Barat", "population": "", "population_proper": "" },
  { "city": "Babakan Barat", "lat": "-8.6022", "lng": "116.1371", "country": "Indonesia", "iso2": "ID", "province": "Nusa Tenggara Barat", "population": "", "population_proper": "" },
  { "city": "Karangparwa", "lat": "-8.6034", "lng": "116.1271", "country": "Indonesia", "iso2": "ID", "province": "Nusa Tenggara Barat", "population": "", "population_proper": "" },
  { "city": "Banjar Kayangan", "lat": "-8.6227", "lng": "115.2295", "country": "Indonesia", "iso2": "ID", "province": "Bali", "population": "", "population_proper": "" },
  { "city": "Banjar Batanpoh", "lat": "-8.6761", "lng": "115.2579", "country": "Indonesia", "iso2": "ID", "province": "Bali", "population": "", "population_proper": "" },
  { "city": "Karyadharma", "lat": "-8.7037", "lng": "115.2187", "country": "Indonesia", "iso2": "ID", "province": "Bali", "population": "", "population_proper": "" },
  { "city": "Banjar Medura", "lat": "-8.6926", "lng": "115.2533", "country": "Indonesia", "iso2": "ID", "province": "Bali", "population": "", "population_proper": "" },
  { "city": "Banjar Paangkelod", "lat": "-8.6238", "lng": "115.2400", "country": "Indonesia", "iso2": "ID", "province": "Bali", "population": "", "population_proper": "" },
  { "city": "Banjar Pemangkalan", "lat": "-8.6243", "lng": "115.2003", "country": "Indonesia", "iso2": "ID", "province": "Bali", "population": "", "population_proper": "" },
  { "city": "Banjar Kertasari", "lat": "-8.6219", "lng": "115.2099", "country": "Indonesia", "iso2": "ID", "province": "Bali", "population": "", "population_proper": "" },
  { "city": "Dajan Tangluk", "lat": "-8.6458", "lng": "115.2389", "country": "Indonesia", "iso2": "ID", "province": "Bali", "population": "", "population_proper": "" },
  { "city": "Banjar Taman", "lat": "-8.6818", "lng": "115.2564", "country": "Indonesia", "iso2": "ID", "province": "Bali", "population": "", "population_proper": "" },
  { "city": "Banjar Kertajiwa", "lat": "-8.6402", "lng": "115.2618", "country": "Indonesia", "iso2": "ID", "province": "Bali", "population": "", "population_proper": "" },
  { "city": "Banjar Batur", "lat": "-8.5997", "lng": "115.2135", "country": "Indonesia", "iso2": "ID", "province": "Bali", "population": "", "population_proper": "" },
  { "city": "Banjar Jabejero", "lat": "-8.5988", "lng": "115.2401", "country": "Indonesia", "iso2": "ID", "province": "Bali", "population": "", "population_proper": "" },
  { "city": "Dumandesa", "lat": "-8.5643", "lng": "116.1492", "country": "Indonesia", "iso2": "ID", "province": "Nusa Tenggara Barat", "population": "", "population_proper": "" },
  { "city": "Kenali Asam", "lat": "-1.6646", "lng": "103.6204", "country": "Indonesia", "iso2": "ID", "province": "Jambi", "population": "", "population_proper": "" },
  { "city": "Klampok", "lat": "-8.1299", "lng": "112.1617", "country": "Indonesia", "iso2": "ID", "province": "Jawa Timur", "population": "", "population_proper": "" },
  { "city": "Semampirbarat", "lat": "-7.3722", "lng": "112.7728", "country": "Indonesia", "iso2": "ID", "province": "Jawa Timur", "population": "", "population_proper": "" },
  { "city": "Kedungpeluk", "lat": "-7.4824", "lng": "112.7546", "country": "Indonesia", "iso2": "ID", "province": "Jawa Timur", "population": "", "population_proper": "" },
  { "city": "Buncitan", "lat": "-7.3961", "lng": "112.7813", "country": "Indonesia", "iso2": "ID", "province": "Jawa Timur", "population": "", "population_proper": "" },
  { "city": "Segorotambak", "lat": "-7.3667", "lng": "112.8075", "country": "Indonesia", "iso2": "ID", "province": "Jawa Timur", "population": "", "population_proper": "" },
  { "city": "Dukuhgisikcemandi", "lat": "-7.3899", "lng": "112.8066", "country": "Indonesia", "iso2": "ID", "province": "Jawa Timur", "population": "", "population_proper": "" },
  { "city": "Banjarkemuning", "lat": "-7.3867", "lng": "112.8085", "country": "Indonesia", "iso2": "ID", "province": "Jawa Timur", "population": "", "population_proper": "" },
  { "city": "Candisari", "lat": "-7.3960", "lng": "112.8080", "country": "Indonesia", "iso2": "ID", "province": "Jawa Timur", "population": "", "population_proper": "" },
  { "city": "Sedatigede", "lat": "-7.3768", "lng": "112.7623", "country": "Indonesia", "iso2": "ID", "province": "Jawa Timur", "population": "", "population_proper": "" },
  { "city": "Wadungasri", "lat": "-7.3451", "lng": "112.7683", "country": "Indonesia", "iso2": "ID", "province": "Jawa Timur", "population": "", "population_proper": "" },
  { "city": "Damarsi", "lat": "-7.4177", "lng": "112.7598", "country": "Indonesia", "iso2": "ID", "province": "Jawa Timur", "population": "", "population_proper": "" },
  { "city": "Sawohan", "lat": "-7.4272", "lng": "112.7701", "country": "Indonesia", "iso2": "ID", "province": "Jawa Timur", "population": "", "population_proper": "" },
  { "city": "Kalanganyartambak", "lat": "-7.3995", "lng": "112.7938", "country": "Indonesia", "iso2": "ID", "province": "Jawa Timur", "population": "", "population_proper": "" },
  { "city": "Pepe", "lat": "-7.4024", "lng": "112.7692", "country": "Indonesia", "iso2": "ID", "province": "Jawa Timur", "population": "", "population_proper": "" },
  { "city": "Sedatiagung", "lat": "-7.3819", "lng": "112.7581", "country": "Indonesia", "iso2": "ID", "province": "Jawa Timur", "population": "", "population_proper": "" },
  { "city": "Dares", "lat": "-7.3690", "lng": "112.7624", "country": "Indonesia", "iso2": "ID", "province": "Jawa Timur", "population": "", "population_proper": "" },
  { "city": "Tambaksumur", "lat": "-7.3485", "lng": "112.7729", "country": "Indonesia", "iso2": "ID", "province": "Jawa Timur", "population": "", "population_proper": "" },
  { "city": "Berbek", "lat": "-7.3464", "lng": "112.7636", "country": "Indonesia", "iso2": "ID", "province": "Jawa Timur", "population": "", "population_proper": "" },
  { "city": "Sedati", "lat": "-7.3952", "lng": "112.7675", "country": "Indonesia", "iso2": "ID", "province": "Jawa Timur", "population": "", "population_proper": "" },
  { "city": "Tambaksawah", "lat": "-7.3601", "lng": "112.7778", "country": "Indonesia", "iso2": "ID", "province": "Jawa Timur", "population": "", "population_proper": "" },
  { "city": "Wedoro", "lat": "-7.3511", "lng": "112.7514", "country": "Indonesia", "iso2": "ID", "province": "Jawa Timur", "population": "", "population_proper": "" },
  { "city": "Sidoarjo", "lat": "-7.4478", "lng": "112.7183", "country": "Indonesia", "iso2": "ID", "province": "Jawa Timur", "population": "", "population_proper": "" },
  { "city": "Dukuh Tengah", "lat": "-7.4160", "lng": "112.7538", "country": "Indonesia", "iso2": "ID", "province": "Jawa Timur", "population": "", "population_proper": "" },
  { "city": "Tambakoso", "lat": "-7.3460", "lng": "112.8039", "country": "Indonesia", "iso2": "ID", "province": "Jawa Timur", "population": "", "population_proper": "" },
  { "city": "Kedaton", "lat": "-5.3835", "lng": "105.2596", "country": "Indonesia", "iso2": "ID", "province": "Lampung", "population": "", "population_proper": "" },
  { "city": "Panjang", "lat": "-5.4759", "lng": "105.3198", "country": "Indonesia", "iso2": "ID", "province": "Lampung", "population": "", "population_proper": "" },
  { "city": "Gunungmuncang", "lat": "-7.3510", "lng": "108.2382", "country": "Indonesia", "iso2": "ID", "province": "Jawa Barat", "population": "", "population_proper": "" },
  { "city": "Cikondang", "lat": "-7.2963", "lng": "108.1689", "country": "Indonesia", "iso2": "ID", "province": "Jawa Barat", "population": "", "population_proper": "" },
  { "city": "Cibogor", "lat": "-7.3141", "lng": "108.2299", "country": "Indonesia", "iso2": "ID", "province": "Jawa Barat", "population": "", "population_proper": "" },
  { "city": "Jatiwangi", "lat": "-7.3785", "lng": "108.2580", "country": "Indonesia", "iso2": "ID", "province": "Jawa Barat", "population": "", "population_proper": "" },
  { "city": "Rancageneng Satu", "lat": "-7.3176", "lng": "108.1861", "country": "Indonesia", "iso2": "ID", "province": "Jawa Barat", "population": "", "population_proper": "" },
  { "city": "Panyarang", "lat": "-7.3472", "lng": "108.1873", "country": "Indonesia", "iso2": "ID", "province": "Jawa Barat", "population": "", "population_proper": "" },
  { "city": "Mancogeh", "lat": "-7.3087", "lng": "108.2172", "country": "Indonesia", "iso2": "ID", "province": "Jawa Barat", "population": "", "population_proper": "" },
  { "city": "Cibangun Tengah", "lat": "-7.3595", "lng": "108.2656", "country": "Indonesia", "iso2": "ID", "province": "Jawa Barat", "population": "", "population_proper": "" },
  { "city": "Gegernoong", "lat": "-7.3862", "lng": "108.2323", "country": "Indonesia", "iso2": "ID", "province": "Jawa Barat", "population": "", "population_proper": "" },
  { "city": "Sukamaju", "lat": "-7.4325", "lng": "108.1932", "country": "Indonesia", "iso2": "ID", "province": "Jawa Barat", "population": "", "population_proper": "" },
  { "city": "Condong", "lat": "-7.3447", "lng": "108.2591", "country": "Indonesia", "iso2": "ID", "province": "Jawa Barat", "population": "", "population_proper": "" },
  { "city": "Rancakukun", "lat": "-7.3447", "lng": "108.1744", "country": "Indonesia", "iso2": "ID", "province": "Jawa Barat", "population": "", "population_proper": "" },
  { "city": "Cibeureum", "lat": "-7.3871", "lng": "108.2349", "country": "Indonesia", "iso2": "ID", "province": "Jawa Barat", "population": "", "population_proper": "" },
  { "city": "Cibeureum", "lat": "-7.3552", "lng": "108.2693", "country": "Indonesia", "iso2": "ID", "province": "Jawa Barat", "population": "", "population_proper": "" },
  { "city": "Sengkol", "lat": "-7.3711", "lng": "108.2135", "country": "Indonesia", "iso2": "ID", "province": "Jawa Barat", "population": "", "population_proper": "" },
  { "city": "Tugusirna", "lat": "-7.3441", "lng": "108.2158", "country": "Indonesia", "iso2": "ID", "province": "Jawa Barat", "population": "", "population_proper": "" },
  { "city": "Cigantang Hilir", "lat": "-7.3606", "lng": "108.1900", "country": "Indonesia", "iso2": "ID", "province": "Jawa Barat", "population": "", "population_proper": "" },
  { "city": "Bantar", "lat": "-7.3231", "lng": "108.1897", "country": "Indonesia", "iso2": "ID", "province": "Jawa Barat", "population": "", "population_proper": "" },
  { "city": "Kahuripan", "lat": "-7.3471", "lng": "108.2281", "country": "Indonesia", "iso2": "ID", "province": "Jawa Barat", "population": "", "population_proper": "" },
  { "city": "Panututan", "lat": "-7.3410", "lng": "108.2088", "country": "Indonesia", "iso2": "ID", "province": "Jawa Barat", "population": "", "population_proper": "" },
  { "city": "Kebontiwu", "lat": "-7.3299", "lng": "108.2274", "country": "Indonesia", "iso2": "ID", "province": "Jawa Barat", "population": "", "population_proper": "" },
  { "city": "Pasanggrahan", "lat": "-7.3872", "lng": "108.2040", "country": "Indonesia", "iso2": "ID", "province": "Jawa Barat", "population": "", "population_proper": "" },
  { "city": "Kawalu", "lat": "-7.3817", "lng": "108.2082", "country": "Indonesia", "iso2": "ID", "province": "Jawa Barat", "population": "", "population_proper": "" },
  { "city": "Lemburwarung", "lat": "-7.3351", "lng": "108.2627", "country": "Indonesia", "iso2": "ID", "province": "Jawa Barat", "population": "", "population_proper": "" },
  { "city": "Gunungkoneng", "lat": "-7.3286", "lng": "108.2105", "country": "Indonesia", "iso2": "ID", "province": "Jawa Barat", "population": "", "population_proper": "" },
  { "city": "Argasari", "lat": "-7.3247", "lng": "108.2057", "country": "Indonesia", "iso2": "ID", "province": "Jawa Barat", "population": "", "population_proper": "" },
  { "city": "Kosangka", "lat": "-7.2918", "lng": "108.2060", "country": "Indonesia", "iso2": "ID", "province": "Jawa Barat", "population": "", "population_proper": "" },
  { "city": "Jati", "lat": "-7.3037", "lng": "108.2033", "country": "Indonesia", "iso2": "ID", "province": "Jawa Barat", "population": "", "population_proper": "" },
  { "city": "Tamansari", "lat": "-7.4230", "lng": "108.1931", "country": "Indonesia", "iso2": "ID", "province": "Jawa Barat", "population": "", "population_proper": "" },
  { "city": "Sambongpari", "lat": "-7.3462", "lng": "108.2050", "country": "Indonesia", "iso2": "ID", "province": "Jawa Barat", "population": "", "population_proper": "" },
  { "city": "Gunungbatu", "lat": "-7.3116", "lng": "108.2040", "country": "Indonesia", "iso2": "ID", "province": "Jawa Barat", "population": "", "population_proper": "" },
  { "city": "Sukasari", "lat": "-7.3258", "lng": "108.2322", "country": "Indonesia", "iso2": "ID", "province": "Jawa Barat", "population": "", "population_proper": "" },
  { "city": "Kotabaru", "lat": "-7.3546", "lng": "108.2604", "country": "Indonesia", "iso2": "ID", "province": "Jawa Barat", "population": "", "population_proper": "" },
  { "city": "Bungursari", "lat": "-7.3031", "lng": "108.1709", "country": "Indonesia", "iso2": "ID", "province": "Jawa Barat", "population": "", "population_proper": "" },
  { "city": "Bantargedang", "lat": "-7.3586", "lng": "108.2497", "country": "Indonesia", "iso2": "ID", "province": "Jawa Barat", "population": "", "population_proper": "" },
  { "city": "Bojongnangka", "lat": "-7.3318", "lng": "108.2498", "country": "Indonesia", "iso2": "ID", "province": "Jawa Barat", "population": "", "population_proper": "" },
  { "city": "Siluman", "lat": "-7.3421", "lng": "108.2365", "country": "Indonesia", "iso2": "ID", "province": "Jawa Barat", "population": "", "population_proper": "" },
  { "city": "Citamiang", "lat": "-7.4058", "lng": "108.1861", "country": "Indonesia", "iso2": "ID", "province": "Jawa Barat", "population": "", "population_proper": "" },
  { "city": "Sukagenah", "lat": "-7.3546", "lng": "108.2086", "country": "Indonesia", "iso2": "ID", "province": "Jawa Barat", "population": "", "population_proper": "" },
  { "city": "Awipari Tengah", "lat": "-7.3511", "lng": "108.2719", "country": "Indonesia", "iso2": "ID", "province": "Jawa Barat", "population": "", "population_proper": "" },
  { "city": "Tambir", "lat": "-7.3770", "lng": "108.1765", "country": "Indonesia", "iso2": "ID", "province": "Jawa Barat", "population": "", "population_proper": "" },
  { "city": "Simpang", "lat": "-7.2796", "lng": "108.1674", "country": "Indonesia", "iso2": "ID", "province": "Jawa Barat", "population": "", "population_proper": "" },
  { "city": "Pasirjaya", "lat": "-7.3251", "lng": "108.2681", "country": "Indonesia", "iso2": "ID", "province": "Jawa Barat", "population": "", "population_proper": "" },
  { "city": "Cilingga", "lat": "-7.3373", "lng": "108.1984", "country": "Indonesia", "iso2": "ID", "province": "Jawa Barat", "population": "", "population_proper": "" },
  { "city": "Pakemitan", "lat": "-7.2924", "lng": "108.1998", "country": "Indonesia", "iso2": "ID", "province": "Jawa Barat", "population": "", "population_proper": "" },
  { "city": "Gunungsubang", "lat": "-7.3716", "lng": "108.1949", "country": "Indonesia", "iso2": "ID", "province": "Jawa Barat", "population": "", "population_proper": "" },
  { "city": "Sukarindik", "lat": "-7.3011", "lng": "108.1869", "country": "Indonesia", "iso2": "ID", "province": "Jawa Barat", "population": "", "population_proper": "" },
  { "city": "Ampera", "lat": "-7.3226", "lng": "108.2108", "country": "Indonesia", "iso2": "ID", "province": "Jawa Barat", "population": "", "population_proper": "" },
  { "city": "Tawangsari", "lat": "-7.3227", "lng": "108.2206", "country": "Indonesia", "iso2": "ID", "province": "Jawa Barat", "population": "", "population_proper": "" },
  { "city": "Sindangpalay", "lat": "-7.2891", "lng": "108.1980", "country": "Indonesia", "iso2": "ID", "province": "Jawa Barat", "population": "", "population_proper": "" },
  { "city": "Yudanagara", "lat": "-7.3307", "lng": "108.2164", "country": "Indonesia", "iso2": "ID", "province": "Jawa Barat", "population": "", "population_proper": "" },
  { "city": "Rahayu Dua", "lat": "-7.3722", "lng": "108.2349", "country": "Indonesia", "iso2": "ID", "province": "Jawa Barat", "population": "", "population_proper": "" },
  { "city": "Sindanggalih", "lat": "-7.2769", "lng": "108.1730", "country": "Indonesia", "iso2": "ID", "province": "Jawa Barat", "population": "", "population_proper": "" },
  { "city": "Leuwidahu", "lat": "-7.3044", "lng": "108.2109", "country": "Indonesia", "iso2": "ID", "province": "Jawa Barat", "population": "", "population_proper": "" },
  { "city": "Sudimara", "lat": "-7.3626", "lng": "108.1774", "country": "Indonesia", "iso2": "ID", "province": "Jawa Barat", "population": "", "population_proper": "" },
  { "city": "Cianjur Kidul", "lat": "-7.3911", "lng": "108.2175", "country": "Indonesia", "iso2": "ID", "province": "Jawa Barat", "population": "", "population_proper": "" },
  { "city": "Saripin", "lat": "-7.3325", "lng": "108.2455", "country": "Indonesia", "iso2": "ID", "province": "Jawa Barat", "population": "", "population_proper": "" },
  { "city": "Margalaksana", "lat": "-7.3444", "lng": "108.2240", "country": "Indonesia", "iso2": "ID", "province": "Jawa Barat", "population": "", "population_proper": "" },
  { "city": "Nagarasari", "lat": "-7.3003", "lng": "108.2213", "country": "Indonesia", "iso2": "ID", "province": "Jawa Barat", "population": "", "population_proper": "" },
  { "city": "Kadupandak", "lat": "-7.3717", "lng": "108.2525", "country": "Indonesia", "iso2": "ID", "province": "Jawa Barat", "population": "", "population_proper": "" },
  { "city": "Nyemplong", "lat": "-7.4180", "lng": "108.2474", "country": "Indonesia", "iso2": "ID", "province": "Jawa Barat", "population": "", "population_proper": "" },
  { "city": "Cikalang", "lat": "-7.3390", "lng": "108.2306", "country": "Indonesia", "iso2": "ID", "province": "Jawa Barat", "population": "", "population_proper": "" },
  { "city": "Cibeuti", "lat": "-7.3862", "lng": "108.1889", "country": "Indonesia", "iso2": "ID", "province": "Jawa Barat", "population": "", "population_proper": "" },
  { "city": "Awilega", "lat": "-7.3924", "lng": "108.2093", "country": "Indonesia", "iso2": "ID", "province": "Jawa Barat", "population": "", "population_proper": "" },
  { "city": "Dadaha", "lat": "-7.3343", "lng": "108.2221", "country": "Indonesia", "iso2": "ID", "province": "Jawa Barat", "population": "", "population_proper": "" },
  { "city": "Sukamaju Kidul", "lat": "-7.2831", "lng": "108.1867", "country": "Indonesia", "iso2": "ID", "province": "Jawa Barat", "population": "", "population_proper": "" },
  { "city": "Tigaraksa", "lat": "-6.2281", "lng": "106.5139", "country": "Indonesia", "iso2": "ID", "province": "Banten", "population": "", "population_proper": "" },
  { "city": "Gunungpeundeuy", "lat": "-7.3231", "lng": "108.2514", "country": "Indonesia", "iso2": "ID", "province": "Jawa Barat", "population": "", "population_proper": "" },
  { "city": "Parakanhonje Wetan", "lat": "-7.2801", "lng": "108.1944", "country": "Indonesia", "iso2": "ID", "province": "Jawa Barat", "population": "", "population_proper": "" },
  { "city": "Kebonsari", "lat": "-8.0176", "lng": "112.6191", "country": "Indonesia", "iso2": "ID", "province": "Jawa Timur", "population": "", "population_proper": "" },
  { "city": "Ciruas", "lat": "-6.1250", "lng": "106.2328", "country": "Indonesia", "iso2": "ID", "province": "Banten", "population": "", "population_proper": "" },
  { "city": "Karangdawa Barat", "lat": "-6.1318", "lng": "106.1109", "country": "Indonesia", "iso2": "ID", "province": "Banten", "population": "", "population_proper": "" },
  { "city": "Padukan", "lat": "-6.1495", "lng": "106.1043", "country": "Indonesia", "iso2": "ID", "province": "Banten", "population": "", "population_proper": "" },
  { "city": "Pekijing", "lat": "-6.1234", "lng": "106.1033", "country": "Indonesia", "iso2": "ID", "province": "Banten", "population": "", "population_proper": "" },
  { "city": "Bandung", "lat": "-7.3993", "lng": "108.2607", "country": "Indonesia", "iso2": "ID", "province": "Jawa Barat", "population": "", "population_proper": "" },
  { "city": "Cikarang", "lat": "-6.3640", "lng": "107.1780", "country": "Indonesia", "iso2": "ID", "province": "Jawa Barat", "population": "", "population_proper": "" },
  { "city": "Batang", "lat": "-6.9078", "lng": "109.7303", "country": "Indonesia", "iso2": "ID", "province": "Jawa Tengah", "population": "", "population_proper": "" },
  { "city": "Tambakbaya", "lat": "-7.4034", "lng": "108.1786", "country": "Indonesia", "iso2": "ID", "province": "Jawa Barat", "population": "", "population_proper": "" },
  { "city": "Tabun", "lat": "-10.2175", "lng": "123.5751", "country": "Indonesia", "iso2": "ID", "province": "Nusa Tenggara Timur", "population": "", "population_proper": "" },
  { "city": "Manutapen", "lat": "-10.1766", "lng": "123.5764", "country": "Indonesia", "iso2": "ID", "province": "Nusa Tenggara Timur", "population": "", "population_proper": "" },
  { "city": "Oebufu", "lat": "-10.1786", "lng": "123.6210", "country": "Indonesia", "iso2": "ID", "province": "Nusa Tenggara Timur", "population": "", "population_proper": "" },
  { "city": "Nunbaunsabu", "lat": "-10.1724", "lng": "123.5662", "country": "Indonesia", "iso2": "ID", "province": "Nusa Tenggara Timur", "population": "", "population_proper": "" },
  { "city": "Airsagu", "lat": "-10.1999", "lng": "123.5800", "country": "Indonesia", "iso2": "ID", "province": "Nusa Tenggara Timur", "population": "", "population_proper": "" },
  { "city": "Oetete", "lat": "-10.1650", "lng": "123.5873", "country": "Indonesia", "iso2": "ID", "province": "Nusa Tenggara Timur", "population": "", "population_proper": "" },
  { "city": "Fatufeto", "lat": "-10.1635", "lng": "123.5751", "country": "Indonesia", "iso2": "ID", "province": "Nusa Tenggara Timur", "population": "", "population_proper": "" },
  { "city": "Todekisar", "lat": "-10.1577", "lng": "123.5842", "country": "Indonesia", "iso2": "ID", "province": "Nusa Tenggara Timur", "population": "", "population_proper": "" },
  { "city": "Naimata", "lat": "-10.1841", "lng": "123.6405", "country": "Indonesia", "iso2": "ID", "province": "Nusa Tenggara Timur", "population": "", "population_proper": "" },
  { "city": "Manulai", "lat": "-10.2327", "lng": "123.5660", "country": "Indonesia", "iso2": "ID", "province": "Nusa Tenggara Timur", "population": "", "population_proper": "" },
  { "city": "Nunutba", "lat": "-10.2183", "lng": "123.6274", "country": "Indonesia", "iso2": "ID", "province": "Nusa Tenggara Timur", "population": "", "population_proper": "" },
  { "city": "Nunbaundelha", "lat": "-10.1720", "lng": "123.5698", "country": "Indonesia", "iso2": "ID", "province": "Nusa Tenggara Timur", "population": "", "population_proper": "" },
  { "city": "Fontein", "lat": "-10.1661", "lng": "123.5822", "country": "Indonesia", "iso2": "ID", "province": "Nusa Tenggara Timur", "population": "", "population_proper": "" },
  { "city": "Merdeka", "lat": "-10.1620", "lng": "123.5865", "country": "Indonesia", "iso2": "ID", "province": "Nusa Tenggara Timur", "population": "", "population_proper": "" },
  { "city": "Oebobo", "lat": "-10.1678", "lng": "123.5992", "country": "Indonesia", "iso2": "ID", "province": "Nusa Tenggara Timur", "population": "", "population_proper": "" },
  { "city": "Kuanino", "lat": "-10.1709", "lng": "123.5898", "country": "Indonesia", "iso2": "ID", "province": "Nusa Tenggara Timur", "population": "", "population_proper": "" },
  { "city": "Nunhila", "lat": "-10.1675", "lng": "123.5714", "country": "Indonesia", "iso2": "ID", "province": "Nusa Tenggara Timur", "population": "", "population_proper": "" },
  { "city": "Namosain", "lat": "-10.1733", "lng": "123.5585", "country": "Indonesia", "iso2": "ID", "province": "Nusa Tenggara Timur", "population": "", "population_proper": "" },
  { "city": "Kelapalima", "lat": "-10.1499", "lng": "123.6194", "country": "Indonesia", "iso2": "ID", "province": "Nusa Tenggara Timur", "population": "", "population_proper": "" },
  { "city": "Airnona", "lat": "-10.1814", "lng": "123.5847", "country": "Indonesia", "iso2": "ID", "province": "Nusa Tenggara Timur", "population": "", "population_proper": "" },
  { "city": "Luti", "lat": "-10.2545", "lng": "123.6040", "country": "Indonesia", "iso2": "ID", "province": "Nusa Tenggara Timur", "population": "", "population_proper": "" },
  { "city": "Bonipoi", "lat": "-10.1617", "lng": "123.5803", "country": "Indonesia", "iso2": "ID", "province": "Nusa Tenggara Timur", "population": "", "population_proper": "" },
  { "city": "Kolhua", "lat": "-10.2139", "lng": "123.6425", "country": "Indonesia", "iso2": "ID", "province": "Nusa Tenggara Timur", "population": "", "population_proper": "" },
  { "city": "Naikoten Dua", "lat": "-10.1729", "lng": "123.5980", "country": "Indonesia", "iso2": "ID", "province": "Nusa Tenggara Timur", "population": "", "population_proper": "" },
  { "city": "Alak", "lat": "-10.1973", "lng": "123.5334", "country": "Indonesia", "iso2": "ID", "province": "Nusa Tenggara Timur", "population": "", "population_proper": "" },
  { "city": "Mantasi", "lat": "-10.1733", "lng": "123.5804", "country": "Indonesia", "iso2": "ID", "province": "Nusa Tenggara Timur", "population": "", "population_proper": "" },
  { "city": "Maulafa", "lat": "-10.1861", "lng": "123.6227", "country": "Indonesia", "iso2": "ID", "province": "Nusa Tenggara Timur", "population": "", "population_proper": "" },
  { "city": "Bakunase", "lat": "-10.1860", "lng": "123.5864", "country": "Indonesia", "iso2": "ID", "province": "Nusa Tenggara Timur", "population": "", "population_proper": "" },
  { "city": "Oeba", "lat": "-10.1594", "lng": "123.5918", "country": "Indonesia", "iso2": "ID", "province": "Nusa Tenggara Timur", "population": "", "population_proper": "" },
  { "city": "Lai Lai Bisi Kopan", "lat": "-10.1628", "lng": "123.5781", "country": "Indonesia", "iso2": "ID", "province": "Nusa Tenggara Timur", "population": "", "population_proper": "" },
  { "city": "Solor", "lat": "-10.1609", "lng": "123.5819", "country": "Indonesia", "iso2": "ID", "province": "Nusa Tenggara Timur", "population": "", "population_proper": "" },
  { "city": "Oepura", "lat": "-10.1890", "lng": "123.6076", "country": "Indonesia", "iso2": "ID", "province": "Nusa Tenggara Timur", "population": "", "population_proper": "" },
  { "city": "Fatukoa", "lat": "-10.2315", "lng": "123.6069", "country": "Indonesia", "iso2": "ID", "province": "Nusa Tenggara Timur", "population": "", "population_proper": "" },
  { "city": "Bonik", "lat": "-10.2016", "lng": "123.6056", "country": "Indonesia", "iso2": "ID", "province": "Nusa Tenggara Timur", "population": "", "population_proper": "" },
  { "city": "Liliba", "lat": "-10.1733", "lng": "123.6374", "country": "Indonesia", "iso2": "ID", "province": "Nusa Tenggara Timur", "population": "", "population_proper": "" },
  { "city": "Pasirpanjang", "lat": "-10.1561", "lng": "123.6021", "country": "Indonesia", "iso2": "ID", "province": "Nusa Tenggara Timur", "population": "", "population_proper": "" },
  { "city": "Airmata", "lat": "-10.1663", "lng": "123.5777", "country": "Indonesia", "iso2": "ID", "province": "Nusa Tenggara Timur", "population": "", "population_proper": "" },
  { "city": "Oesapa", "lat": "-10.1485", "lng": "123.6470", "country": "Indonesia", "iso2": "ID", "province": "Nusa Tenggara Timur", "population": "", "population_proper": "" },
  { "city": "Pasagipasir", "lat": "-6.1821", "lng": "106.1212", "country": "Indonesia", "iso2": "ID", "province": "Banten", "population": "", "population_proper": "" },
  { "city": "Bojong", "lat": "-6.1618", "lng": "106.0899", "country": "Indonesia", "iso2": "ID", "province": "Banten", "population": "", "population_proper": "" },
  { "city": "Curug", "lat": "-5.9813", "lng": "106.0193", "country": "Indonesia", "iso2": "ID", "province": "Banten", "population": "", "population_proper": "" },
  { "city": "Kubangkepuh", "lat": "-5.8994", "lng": "106.0284", "country": "Indonesia", "iso2": "ID", "province": "Banten", "population": "", "population_proper": "" },
  { "city": "Sleman", "lat": "-7.7156", "lng": "110.3556", "country": "Indonesia", "iso2": "ID", "province": "Yogyakarta", "population": "", "population_proper": "" },
  { "city": "Gunungangka", "lat": "-7.3431", "lng": "108.1643", "country": "Indonesia", "iso2": "ID", "province": "Jawa Barat", "population": "", "population_proper": "" },
  { "city": "Pasiripis", "lat": "-7.3459", "lng": "108.1656", "country": "Indonesia", "iso2": "ID", "province": "Jawa Barat", "population": "", "population_proper": "" },
  { "city": "Sumber", "lat": "-6.7603", "lng": "108.4831", "country": "Indonesia", "iso2": "ID", "province": "Jawa Barat", "population": "", "population_proper": "" },
  { "city": "Bantul", "lat": "-7.8881", "lng": "110.3289", "country": "Indonesia", "iso2": "ID", "province": "Yogyakarta", "population": "", "population_proper": "" },
  { "city": "Sofifi", "lat": "0.7373", "lng": "127.5588", "country": "Indonesia", "iso2": "ID", "province": "Maluku Utara", "population": "", "population_proper": "" },
  { "city": "Mamuju", "lat": "-2.6806", "lng": "118.8861", "country": "Indonesia", "iso2": "ID", "province": "Sulawesi Barat", "population": "", "population_proper": "" },
  { "city": "Tanjung Selor", "lat": "2.8375", "lng": "117.3653", "country": "Indonesia", "iso2": "ID", "province": "Kalimantan Utara", "population": "", "population_proper": "" },
  { "city": "Pontianak Barat", "lat": "-0.0189", "lng": "109.3187", "country": "Indonesia", "iso2": "ID", "province": "Kalimantan Barat", "population": "", "population_proper": "" },
  { "city": "Kertasari", "lat": "-7.3461", "lng": "108.2814", "country": "Indonesia", "iso2": "ID", "province": "Jawa Barat", "population": "", "population_proper": "" },
  { "city": "Sungai Raya", "lat": "-0.1269", "lng": "109.4039", "country": "Indonesia", "iso2": "ID", "province": "Kalimantan Barat", "population": "", "population_proper": "" },
  { "city": "Kudus", "lat": "-6.8048", "lng": "110.8405", "country": "Indonesia", "iso2": "ID", "province": "Jawa Tengah", "population": "", "population_proper": "" },
  { "city": "Kompa Satu", "lat": "-6.5822", "lng": "106.5061", "country": "Indonesia", "iso2": "ID", "province": "Jawa Barat", "population": "", "population_proper": "" },
  { "city": "Cileuksa", "lat": "-6.6032", "lng": "106.4448", "country": "Indonesia", "iso2": "ID", "province": "Jawa Barat", "population": "", "population_proper": "" },
  { "city": "Cisarua", "lat": "-6.6527", "lng": "106.4710", "country": "Indonesia", "iso2": "ID", "province": "Jawa Barat", "population": "", "population_proper": "" },
  { "city": "Lebakhuni", "lat": "-6.5179", "lng": "106.4631", "country": "Indonesia", "iso2": "ID", "province": "Jawa Barat", "population": "", "population_proper": "" },
  { "city": "Cibadak", "lat": "-6.5816", "lng": "106.4846", "country": "Indonesia", "iso2": "ID", "province": "Jawa Barat", "population": "", "population_proper": "" },
  { "city": "Garisul", "lat": "-6.5055", "lng": "106.4959", "country": "Indonesia", "iso2": "ID", "province": "Jawa Barat", "population": "", "population_proper": "" },
  { "city": "Cibinong", "lat": "-6.4817", "lng": "106.8542", "country": "Indonesia", "iso2": "ID", "province": "Jawa Barat", "population": "", "population_proper": "" },
  { "city": "Pasirmadang", "lat": "-6.5983", "lng": "106.4782", "country": "Indonesia", "iso2": "ID", "province": "Jawa Barat", "population": "", "population_proper": "" },
  { "city": "Kadaka", "lat": "-6.5190", "lng": "106.4998", "country": "Indonesia", "iso2": "ID", "province": "Jawa Barat", "population": "", "population_proper": "" },
  { "city": "Sidoger Lebak", "lat": "-6.5928", "lng": "106.5131", "country": "Indonesia", "iso2": "ID", "province": "Jawa Barat", "population": "", "population_proper": "" },
  { "city": "Cipeundeuy", "lat": "-6.6569", "lng": "106.5011", "country": "Indonesia", "iso2": "ID", "province": "Jawa Barat", "population": "", "population_proper": "" },
  { "city": "Pangradin Satu", "lat": "-6.5084", "lng": "106.4773", "country": "Indonesia", "iso2": "ID", "province": "Jawa Barat", "population": "", "population_proper": "" },
  { "city": "Cipatat", "lat": "-6.6223", "lng": "106.4955", "country": "Indonesia", "iso2": "ID", "province": "Jawa Barat", "population": "", "population_proper": "" },
  { "city": "Pulau Pramuka", "lat": "-5.7458", "lng": "106.6139", "country": "Indonesia", "iso2": "ID", "province": "Jakarta", "population": "", "population_proper": "" },
  { "city": "Suwawa", "lat": "0.5325", "lng": "123.1469", "country": "Indonesia", "iso2": "ID", "province": "Gorontalo", "population": "", "population_proper": "" },
  { "city": "Bualu", "lat": "-8.7960", "lng": "115.2172", "country": "Indonesia", "iso2": "ID", "province": "Bali", "population": "", "population_proper": "" },
  { "city": "Banjar Danginpangkung", "lat": "-8.5754", "lng": "115.1645", "country": "Indonesia", "iso2": "ID", "province": "Bali", "population": "", "population_proper": "" },
  { "city": "Pecatu", "lat": "-8.8323", "lng": "115.1247", "country": "Indonesia", "iso2": "ID", "province": "Bali", "population": "", "population_proper": "" },
  { "city": "Pegongan", "lat": "-8.4855", "lng": "115.2265", "country": "Indonesia", "iso2": "ID", "province": "Bali", "population": "", "population_proper": "" },
  { "city": "Banjar Kaja", "lat": "-8.6097", "lng": "115.1723", "country": "Indonesia", "iso2": "ID", "province": "Bali", "population": "", "population_proper": "" },
  { "city": "Banjar Keraman", "lat": "-8.5280", "lng": "115.2117", "country": "Indonesia", "iso2": "ID", "province": "Bali", "population": "", "population_proper": "" },
  { "city": "Pemijian", "lat": "-8.4499", "lng": "115.2193", "country": "Indonesia", "iso2": "ID", "province": "Bali", "population": "", "population_proper": "" },
  { "city": "Banjar Lebahsari", "lat": "-8.5453", "lng": "115.1755", "country": "Indonesia", "iso2": "ID", "province": "Bali", "population": "", "population_proper": "" },
  { "city": "Banjar Mambalkajanan", "lat": "-8.5506", "lng": "115.2234", "country": "Indonesia", "iso2": "ID", "province": "Bali", "population": "", "population_proper": "" },
  { "city": "Banjar Parekan", "lat": "-8.5763", "lng": "115.2164", "country": "Indonesia", "iso2": "ID", "province": "Bali", "population": "", "population_proper": "" },
  { "city": "Banjar Badung", "lat": "-8.5816", "lng": "115.1884", "country": "Indonesia", "iso2": "ID", "province": "Bali", "population": "", "population_proper": "" },
  { "city": "Banjar Desa", "lat": "-8.5825", "lng": "115.2404", "country": "Indonesia", "iso2": "ID", "province": "Bali", "population": "", "population_proper": "" },
  { "city": "Banjar Kembangsari", "lat": "-8.5072", "lng": "115.2116", "country": "Indonesia", "iso2": "ID", "province": "Bali", "population": "", "population_proper": "" },
  { "city": "Banjar Pelaga", "lat": "-8.2928", "lng": "115.2252", "country": "Indonesia", "iso2": "ID", "province": "Bali", "population": "", "population_proper": "" },
  { "city": "Banjar Sedang", "lat": "-8.5707", "lng": "115.2389", "country": "Indonesia", "iso2": "ID", "province": "Bali", "population": "", "population_proper": "" },
  { "city": "Pangsan", "lat": "-8.4146", "lng": "115.2209", "country": "Indonesia", "iso2": "ID", "province": "Bali", "population": "", "population_proper": "" },
  { "city": "Banjar Cemenggon", "lat": "-8.5391", "lng": "115.1995", "country": "Indonesia", "iso2": "ID", "province": "Bali", "population": "", "population_proper": "" },
  { "city": "Banjar Ulapan Satu", "lat": "-8.5098", "lng": "115.2144", "country": "Indonesia", "iso2": "ID", "province": "Bali", "population": "", "population_proper": "" },
  { "city": "Banjar Badung Tengah", "lat": "-8.5067", "lng": "115.1994", "country": "Indonesia", "iso2": "ID", "province": "Bali", "population": "", "population_proper": "" },
  { "city": "Kangin", "lat": "-8.8334", "lng": "115.1269", "country": "Indonesia", "iso2": "ID", "province": "Bali", "population": "", "population_proper": "" },
  { "city": "Banjar Gunungpande", "lat": "-8.6160", "lng": "115.1448", "country": "Indonesia", "iso2": "ID", "province": "Bali", "population": "", "population_proper": "" },
  { "city": "Banjar Pekenjelodan", "lat": "-8.5752", "lng": "115.1777", "country": "Indonesia", "iso2": "ID", "province": "Bali", "population": "", "population_proper": "" },
  { "city": "Banjar Karangsuling", "lat": "-8.5998", "lng": "115.1952", "country": "Indonesia", "iso2": "ID", "province": "Bali", "population": "", "population_proper": "" },
  { "city": "Banjar Kerobokan", "lat": "-8.6185", "lng": "115.1276", "country": "Indonesia", "iso2": "ID", "province": "Bali", "population": "", "population_proper": "" },
  { "city": "Jabajero", "lat": "-8.7277", "lng": "115.1750", "country": "Indonesia", "iso2": "ID", "province": "Bali", "population": "", "population_proper": "" },
  { "city": "Dajanpeken", "lat": "-8.4696", "lng": "115.1837", "country": "Indonesia", "iso2": "ID", "province": "Bali", "population": "", "population_proper": "" },
  { "city": "Banjar Kedua", "lat": "-8.5184", "lng": "115.1865", "country": "Indonesia", "iso2": "ID", "province": "Bali", "population": "", "population_proper": "" },
  { "city": "Banjar Cice", "lat": "-8.5900", "lng": "115.1707", "country": "Indonesia", "iso2": "ID", "province": "Bali", "population": "", "population_proper": "" },
  { "city": "Kelanabian", "lat": "-8.7519", "lng": "115.1769", "country": "Indonesia", "iso2": "ID", "province": "Bali", "population": "", "population_proper": "" },
  { "city": "Banjar Tengah", "lat": "-8.5653", "lng": "115.2196", "country": "Indonesia", "iso2": "ID", "province": "Bali", "population": "", "population_proper": "" },
  { "city": "Banjar Tengah", "lat": "-8.4985", "lng": "115.1942", "country": "Indonesia", "iso2": "ID", "province": "Bali", "population": "", "population_proper": "" },
  { "city": "Banjar Bucu", "lat": "-8.5857", "lng": "115.2061", "country": "Indonesia", "iso2": "ID", "province": "Bali", "population": "", "population_proper": "" },
  { "city": "Banjar Sempidi", "lat": "-8.5233", "lng": "115.2057", "country": "Indonesia", "iso2": "ID", "province": "Bali", "population": "", "population_proper": "" },
  { "city": "Banjar Serangan", "lat": "-8.5435", "lng": "115.1692", "country": "Indonesia", "iso2": "ID", "province": "Bali", "population": "", "population_proper": "" },
  { "city": "Mangupura", "lat": "-8.5439", "lng": "115.1700", "country": "Indonesia", "iso2": "ID", "province": "Bali", "population": "", "population_proper": "" },
  { "city": "Brahmana", "lat": "-8.4867", "lng": "115.2101", "country": "Indonesia", "iso2": "ID", "province": "Bali", "population": "", "population_proper": "" },
  { "city": "Banjar Jumbayah", "lat": "-8.5649", "lng": "115.1655", "country": "Indonesia", "iso2": "ID", "province": "Bali", "population": "", "population_proper": "" },
  { "city": "Banjar Teguan", "lat": "-8.5057", "lng": "115.2299", "country": "Indonesia", "iso2": "ID", "province": "Bali", "population": "", "population_proper": "" },
  { "city": "Klaten", "lat": "-7.7058", "lng": "110.6064", "country": "Indonesia", "iso2": "ID", "province": "Jawa Tengah", "population": "", "population_proper": "" },
  { "city": "Petang", "lat": "-8.3963", "lng": "115.2187", "country": "Indonesia", "iso2": "ID", "province": "Bali", "population": "", "population_proper": "" },
  { "city": "Lampuuk", "lat": "5.5710", "lng": "95.3895", "country": "Indonesia", "iso2": "ID", "province": "Aceh", "population": "", "population_proper": "" },
  { "city": "Lambaro", "lat": "5.5558", "lng": "95.3438", "country": "Indonesia", "iso2": "ID", "province": "Aceh", "population": "", "population_proper": "" },
  { "city": "Mata Ie", "lat": "5.5278", "lng": "95.3347", "country": "Indonesia", "iso2": "ID", "province": "Aceh", "population": "", "population_proper": "" },
  { "city": "Tungoo", "lat": "0.7469", "lng": "124.2611", "country": "Indonesia", "iso2": "ID", "province": "Sulawesi Utara", "population": "", "population_proper": "" },
  { "city": "Sukoharjo", "lat": "-7.6725", "lng": "110.8381", "country": "Indonesia", "iso2": "ID", "province": "Jawa Tengah", "population": "", "population_proper": "" },
  { "city": "Harapankarya", "lat": "-3.9893", "lng": "119.6438", "country": "Indonesia", "iso2": "ID", "province": "Sulawesi Selatan", "population": "", "population_proper": "" },
  { "city": "Santosa", "lat": "-7.2537", "lng": "107.6388", "country": "Indonesia", "iso2": "ID", "province": "Jawa Barat", "population": "", "population_proper": "" },
  { "city": "Ciburial", "lat": "-7.0396", "lng": "107.9077", "country": "Indonesia", "iso2": "ID", "province": "Jawa Barat", "population": "", "population_proper": "" },
  { "city": "Margabakti", "lat": "-7.0137", "lng": "107.8771", "country": "Indonesia", "iso2": "ID", "province": "Jawa Barat", "population": "", "population_proper": "" },
  { "city": "Cigorowong Kidul", "lat": "-7.0220", "lng": "107.8845", "country": "Indonesia", "iso2": "ID", "province": "Jawa Barat", "population": "", "population_proper": "" },
  { "city": "Soreang", "lat": "-7.0331", "lng": "107.5183", "country": "Indonesia", "iso2": "ID", "province": "Jawa Barat", "population": "", "population_proper": "" },
  { "city": "Negla", "lat": "-7.2733", "lng": "107.6757", "country": "Indonesia", "iso2": "ID", "province": "Jawa Barat", "population": "", "population_proper": "" },
  { "city": "Gerempay", "lat": "-7.3379", "lng": "108.2882", "country": "Indonesia", "iso2": "ID", "province": "Jawa Barat", "population": "", "population_proper": "" },
  { "city": "Lubukbergalung", "lat": "-0.9608", "lng": "100.4001", "country": "Indonesia", "iso2": "ID", "province": "Sumatera Barat", "population": "", "population_proper": "" },
  { "city": "Rajapeni", "lat": "-7.2841", "lng": "108.2148", "country": "Indonesia", "iso2": "ID", "province": "Jawa Barat", "population": "", "population_proper": "" },
  { "city": "Teluk Binjai", "lat": "1.6720", "lng": "101.4497", "country": "Indonesia", "iso2": "ID", "province": "Riau", "population": "", "population_proper": "" },
  { "city": "Bagan Besar", "lat": "1.5818", "lng": "101.3867", "country": "Indonesia", "iso2": "ID", "province": "Riau", "population": "", "population_proper": "" },
  { "city": "Rimba Sekampung", "lat": "1.6756", "lng": "101.4375", "country": "Indonesia", "iso2": "ID", "province": "Riau", "population": "", "population_proper": "" },
  { "city": "Kampung Laksamana", "lat": "1.6793", "lng": "101.4389", "country": "Indonesia", "iso2": "ID", "province": "Riau", "population": "", "population_proper": "" },
  { "city": "Buluh Kasap", "lat": "1.6808", "lng": "101.4561", "country": "Indonesia", "iso2": "ID", "province": "Riau", "population": "", "population_proper": "" },
  { "city": "Tanjung Palas", "lat": "1.6785", "lng": "101.4701", "country": "Indonesia", "iso2": "ID", "province": "Riau", "population": "", "population_proper": "" },
  { "city": "Dumai Kota", "lat": "1.6782", "lng": "101.4436", "country": "Indonesia", "iso2": "ID", "province": "Riau", "population": "", "population_proper": "" },
  { "city": "Ciaro", "lat": "-7.0384", "lng": "107.9201", "country": "Indonesia", "iso2": "ID", "province": "Jawa Barat", "population": "", "population_proper": "" },
  { "city": "Pandan", "lat": "1.6838", "lng": "98.8220", "country": "Indonesia", "iso2": "ID", "province": "Sumatera Utara", "population": "", "population_proper": "" },
  { "city": "Banjar Belok", "lat": "-8.2858", "lng": "115.2428", "country": "Indonesia", "iso2": "ID", "province": "Bali", "population": "", "population_proper": "" },
  { "city": "Jambula", "lat": "0.7578", "lng": "127.3183", "country": "Indonesia", "iso2": "ID", "province": "Maluku Utara", "population": "", "population_proper": "" },
  { "city": "Basiong", "lat": "0.7729", "lng": "127.3748", "country": "Indonesia", "iso2": "ID", "province": "Maluku Utara", "population": "", "population_proper": "" },
  { "city": "Passo", "lat": "-3.6301", "lng": "128.2524", "country": "Indonesia", "iso2": "ID", "province": "Maluku", "population": "", "population_proper": "" },
  { "city": "Amahusu", "lat": "-3.7253", "lng": "128.1471", "country": "Indonesia", "iso2": "ID", "province": "Maluku", "population": "", "population_proper": "" },
  { "city": "Sukasirna", "lat": "-7.3655", "lng": "108.2778", "country": "Indonesia", "iso2": "ID", "province": "Jawa Barat", "population": "", "population_proper": "" },
  { "city": "Sukahurip", "lat": "-7.3521", "lng": "108.6363", "country": "Indonesia", "iso2": "ID", "province": "Jawa Barat", "population": "", "population_proper": "" },
  { "city": "Cimanggu", "lat": "-7.4160", "lng": "108.5676", "country": "Indonesia", "iso2": "ID", "province": "Jawa Barat", "population": "", "population_proper": "" },
  { "city": "Hegarsari", "lat": "-7.3859", "lng": "108.5394", "country": "Indonesia", "iso2": "ID", "province": "Jawa Barat", "population": "", "population_proper": "" },
  { "city": "Randegan", "lat": "-7.3522", "lng": "108.5712", "country": "Indonesia", "iso2": "ID", "province": "Jawa Barat", "population": "", "population_proper": "" },
  { "city": "Langkaplancar", "lat": "-7.3777", "lng": "108.6141", "country": "Indonesia", "iso2": "ID", "province": "Jawa Barat", "population": "", "population_proper": "" },
  { "city": "Cibeureum", "lat": "-7.3707", "lng": "108.5087", "country": "Indonesia", "iso2": "ID", "province": "Jawa Barat", "population": "", "population_proper": "" },
  { "city": "Pangasinan", "lat": "-7.4066", "lng": "108.5292", "country": "Indonesia", "iso2": "ID", "province": "Jawa Barat", "population": "", "population_proper": "" },
  { "city": "Bojong", "lat": "-7.3858", "lng": "108.4941", "country": "Indonesia", "iso2": "ID", "province": "Jawa Barat", "population": "", "population_proper": "" },
  { "city": "Babakan", "lat": "-7.3657", "lng": "108.6405", "country": "Indonesia", "iso2": "ID", "province": "Jawa Barat", "population": "", "population_proper": "" },
  { "city": "Ciaren", "lat": "-7.3680", "lng": "108.5565", "country": "Indonesia", "iso2": "ID", "province": "Jawa Barat", "population": "", "population_proper": "" },
  { "city": "Cipadung Timur", "lat": "-7.3594", "lng": "108.5414", "country": "Indonesia", "iso2": "ID", "province": "Jawa Barat", "population": "", "population_proper": "" },
  { "city": "Balokang", "lat": "-7.3665", "lng": "108.4852", "country": "Indonesia", "iso2": "ID", "province": "Jawa Barat", "population": "", "population_proper": "" },
  { "city": "Sinargalih", "lat": "-7.3574", "lng": "108.6382", "country": "Indonesia", "iso2": "ID", "province": "Jawa Barat", "population": "", "population_proper": "" },
  { "city": "Randegan Dua", "lat": "-7.3556", "lng": "108.5683", "country": "Indonesia", "iso2": "ID", "province": "Jawa Barat", "population": "", "population_proper": "" },
  { "city": "Rancakole", "lat": "-7.3715", "lng": "108.5891", "country": "Indonesia", "iso2": "ID", "province": "Jawa Barat", "population": "", "population_proper": "" },
  { "city": "Babakansari", "lat": "-7.3699", "lng": "108.5609", "country": "Indonesia", "iso2": "ID", "province": "Jawa Barat", "population": "", "population_proper": "" },
  { "city": "Warungbuah", "lat": "-7.3858", "lng": "108.5044", "country": "Indonesia", "iso2": "ID", "province": "Jawa Barat", "population": "", "population_proper": "" },
  { "city": "Sukarame", "lat": "-7.3779", "lng": "108.5375", "country": "Indonesia", "iso2": "ID", "province": "Jawa Barat", "population": "", "population_proper": "" },
  { "city": "Sindanggalih", "lat": "-7.3615", "lng": "108.6238", "country": "Indonesia", "iso2": "ID", "province": "Jawa Barat", "population": "", "population_proper": "" },
  { "city": "Cikabuyutan Barat", "lat": "-7.3785", "lng": "108.5422", "country": "Indonesia", "iso2": "ID", "province": "Jawa Barat", "population": "", "population_proper": "" },
  { "city": "Banjar Pande", "lat": "-8.5126", "lng": "115.2399", "country": "Indonesia", "iso2": "ID", "province": "Bali", "population": "", "population_proper": "" },
  { "city": "Slawi", "lat": "-6.9816", "lng": "109.1407", "country": "Indonesia", "iso2": "ID", "province": "Jawa Tengah", "population": "", "population_proper": "" },
  { "city": "Banjar Sayanbaleran", "lat": "-8.5060", "lng": "115.1804", "country": "Indonesia", "iso2": "ID", "province": "Bali", "population": "", "population_proper": "" },
  { "city": "Banjar Sandinggianyar", "lat": "-8.4629", "lng": "115.2992", "country": "Indonesia", "iso2": "ID", "province": "Bali", "population": "", "population_proper": "" },
  { "city": "Banjar Tebongkang", "lat": "-8.5285", "lng": "115.2431", "country": "Indonesia", "iso2": "ID", "province": "Bali", "population": "", "population_proper": "" },
  { "city": "Banjar Triwangsakelusa", "lat": "-8.4406", "lng": "115.2582", "country": "Indonesia", "iso2": "ID", "province": "Bali", "population": "", "population_proper": "" },
  { "city": "Bayad", "lat": "-8.4472", "lng": "115.2415", "country": "Indonesia", "iso2": "ID", "province": "Bali", "population": "", "population_proper": "" },
  { "city": "Melinggih", "lat": "-8.4313", "lng": "115.2447", "country": "Indonesia", "iso2": "ID", "province": "Bali", "population": "", "population_proper": "" },
  { "city": "Banjar Mulung", "lat": "-8.4786", "lng": "115.3107", "country": "Indonesia", "iso2": "ID", "province": "Bali", "population": "", "population_proper": "" },
  { "city": "Buahan", "lat": "-8.3948", "lng": "115.2367", "country": "Indonesia", "iso2": "ID", "province": "Bali", "population": "", "population_proper": "" },
  { "city": "Banjar Bukian", "lat": "-8.4069", "lng": "115.2651", "country": "Indonesia", "iso2": "ID", "province": "Bali", "population": "", "population_proper": "" },
  { "city": "Banjar Kedisan Kelod", "lat": "-8.4222", "lng": "115.2924", "country": "Indonesia", "iso2": "ID", "province": "Bali", "population": "", "population_proper": "" },
  { "city": "Banjar Ubud", "lat": "-8.4761", "lng": "115.2932", "country": "Indonesia", "iso2": "ID", "province": "Bali", "population": "", "population_proper": "" },
  { "city": "Gianyar", "lat": "-8.5435", "lng": "115.3272", "country": "Indonesia", "iso2": "ID", "province": "Bali", "population": "", "population_proper": "" },
  { "city": "Banjar Pasekan", "lat": "-8.6329", "lng": "115.2840", "country": "Indonesia", "iso2": "ID", "province": "Bali", "population": "", "population_proper": "" },
  { "city": "Banjar Petuludesa", "lat": "-8.4869", "lng": "115.2742", "country": "Indonesia", "iso2": "ID", "province": "Bali", "population": "", "population_proper": "" },
  { "city": "Banjar Pesalakan", "lat": "-8.4812", "lng": "115.3025", "country": "Indonesia", "iso2": "ID", "province": "Bali", "population": "", "population_proper": "" },
  { "city": "Banjar Madangan Kaja", "lat": "-8.4750", "lng": "115.3238", "country": "Indonesia", "iso2": "ID", "province": "Bali", "population": "", "population_proper": "" },
  { "city": "Banjar Tegallalang", "lat": "-8.4366", "lng": "115.2792", "country": "Indonesia", "iso2": "ID", "province": "Bali", "population": "", "population_proper": "" },
  { "city": "Banjar Triwangsakeliki", "lat": "-8.4520", "lng": "115.2620", "country": "Indonesia", "iso2": "ID", "province": "Bali", "population": "", "population_proper": "" },
  { "city": "Banjar Manukayaanyar", "lat": "-8.4083", "lng": "115.3124", "country": "Indonesia", "iso2": "ID", "province": "Bali", "population": "", "population_proper": "" },
  { "city": "Banjar Dujung Kaja", "lat": "-8.4008", "lng": "115.2886", "country": "Indonesia", "iso2": "ID", "province": "Bali", "population": "", "population_proper": "" },
  { "city": "Banjar Ponggang", "lat": "-8.3893", "lng": "115.2605", "country": "Indonesia", "iso2": "ID", "province": "Bali", "population": "", "population_proper": "" },
  { "city": "Banjar Kerta", "lat": "-8.3384", "lng": "115.2868", "country": "Indonesia", "iso2": "ID", "province": "Bali", "population": "", "population_proper": "" },
  { "city": "Banjar Tengah", "lat": "-8.4289", "lng": "115.3065", "country": "Indonesia", "iso2": "ID", "province": "Bali", "population": "", "population_proper": "" },
  { "city": "Bunutan", "lat": "-8.4649", "lng": "115.2480", "country": "Indonesia", "iso2": "ID", "province": "Bali", "population": "", "population_proper": "" },
  { "city": "Banjar Taro Kelod", "lat": "-8.3849", "lng": "115.2794", "country": "Indonesia", "iso2": "ID", "province": "Bali", "population": "", "population_proper": "" },
  { "city": "Cilangkap", "lat": "-7.4041", "lng": "108.4981", "country": "Indonesia", "iso2": "ID", "province": "Jawa Barat", "population": "", "population_proper": "" },
  { "city": "Bandar Seri Bentan", "lat": "1.0542", "lng": "104.4800", "country": "Indonesia", "iso2": "ID", "province": "Kepulauan Riau", "population": "", "population_proper": "" },
  { "city": "Sekupang", "lat": "1.1272", "lng": "103.9267", "country": "Indonesia", "iso2": "ID", "province": "Kepulauan Riau", "population": "", "population_proper": "" },
  { "city": "Belakangpadang", "lat": "1.1496", "lng": "103.8916", "country": "Indonesia", "iso2": "ID", "province": "Kepulauan Riau", "population": "", "population_proper": "" },
  { "city": "Cimawate", "lat": "-7.4202", "lng": "108.1822", "country": "Indonesia", "iso2": "ID", "province": "Jawa Barat", "population": "", "population_proper": "" },
  { "city": "Cilisung", "lat": "-7.4165", "lng": "108.5124", "country": "Indonesia", "iso2": "ID", "province": "Jawa Barat", "population": "", "population_proper": "" },
  { "city": "Karawang", "lat": "-6.3033", "lng": "107.3056", "country": "Indonesia", "iso2": "ID", "province": "Jawa Barat", "population": "", "population_proper": "" },
  { "city": "Nagrog", "lat": "-7.0347", "lng": "107.2297", "country": "Indonesia", "iso2": "ID", "province": "Jawa Barat", "population": "", "population_proper": "" },
  { "city": "Tegallega", "lat": "-7.0463", "lng": "107.2224", "country": "Indonesia", "iso2": "ID", "province": "Jawa Barat", "population": "", "population_proper": "" },
  { "city": "Banjar Petak", "lat": "-8.4448", "lng": "115.3195", "country": "Indonesia", "iso2": "ID", "province": "Bali", "population": "", "population_proper": "" },
  { "city": "Demak", "lat": "-6.8909", "lng": "110.6396", "country": "Indonesia", "iso2": "ID", "province": "Jawa Tengah", "population": "", "population_proper": "" },
  { "city": "Tinggarwangi", "lat": "-7.5239", "lng": "109.1228", "country": "Indonesia", "iso2": "ID", "province": "Jawa Tengah", "population": "", "population_proper": "" },
  { "city": "Kebasen", "lat": "-7.5333", "lng": "109.1997", "country": "Indonesia", "iso2": "ID", "province": "Jawa Tengah", "population": "", "population_proper": "" },
  { "city": "Menganti", "lat": "-7.5492", "lng": "109.1564", "country": "Indonesia", "iso2": "ID", "province": "Jawa Tengah", "population": "", "population_proper": "" },
  { "city": "Tipar", "lat": "-7.5053", "lng": "109.1481", "country": "Indonesia", "iso2": "ID", "province": "Jawa Tengah", "population": "", "population_proper": "" },
  { "city": "Rawaheng", "lat": "-7.5411", "lng": "109.0467", "country": "Indonesia", "iso2": "ID", "province": "Jawa Tengah", "population": "", "population_proper": "" },
  { "city": "Garbi", "lat": "-7.5022", "lng": "109.2147", "country": "Indonesia", "iso2": "ID", "province": "Jawa Tengah", "population": "", "population_proper": "" },
  { "city": "Purwokerto", "lat": "-7.4214", "lng": "109.2344", "country": "Indonesia", "iso2": "ID", "province": "Jawa Tengah", "population": "", "population_proper": "" },
  { "city": "Losari", "lat": "-7.5578", "lng": "109.1547", "country": "Indonesia", "iso2": "ID", "province": "Jawa Tengah", "population": "", "population_proper": "" },
  { "city": "Sangkalputung", "lat": "-7.5061", "lng": "109.0625", "country": "Indonesia", "iso2": "ID", "province": "Jawa Tengah", "population": "", "population_proper": "" },
  { "city": "Papringan", "lat": "-7.5039", "lng": "109.2483", "country": "Indonesia", "iso2": "ID", "province": "Jawa Tengah", "population": "", "population_proper": "" },
  { "city": "Gambarjati", "lat": "-7.5369", "lng": "109.1289", "country": "Indonesia", "iso2": "ID", "province": "Jawa Tengah", "population": "", "population_proper": "" },
  { "city": "Pekuncen", "lat": "-7.5597", "lng": "109.1186", "country": "Indonesia", "iso2": "ID", "province": "Jawa Tengah", "population": "", "population_proper": "" },
  { "city": "Karanglewas", "lat": "-7.5536", "lng": "109.1389", "country": "Indonesia", "iso2": "ID", "province": "Jawa Tengah", "population": "", "population_proper": "" },
  { "city": "Binangun", "lat": "-7.5375", "lng": "109.2469", "country": "Indonesia", "iso2": "ID", "province": "Jawa Tengah", "population": "", "population_proper": "" },
  { "city": "Klapagading", "lat": "-7.5186", "lng": "109.0694", "country": "Indonesia", "iso2": "ID", "province": "Jawa Tengah", "population": "", "population_proper": "" },
  { "city": "Kaliduren", "lat": "-7.5603", "lng": "109.0981", "country": "Indonesia", "iso2": "ID", "province": "Jawa Tengah", "population": "", "population_proper": "" },
  { "city": "Gerduren", "lat": "-7.5133", "lng": "109.0928", "country": "Indonesia", "iso2": "ID", "province": "Jawa Tengah", "population": "", "population_proper": "" },
  { "city": "Sudikampir", "lat": "-7.5128", "lng": "109.0272", "country": "Indonesia", "iso2": "ID", "province": "Jawa Tengah", "population": "", "population_proper": "" },
  { "city": "Bantar Tengah", "lat": "-7.5453", "lng": "109.0892", "country": "Indonesia", "iso2": "ID", "province": "Jawa Tengah", "population": "", "population_proper": "" },
  { "city": "Wangon", "lat": "-7.5161", "lng": "109.0539", "country": "Indonesia", "iso2": "ID", "province": "Jawa Tengah", "population": "", "population_proper": "" },
  { "city": "Rawalo", "lat": "-7.5369", "lng": "109.1792", "country": "Indonesia", "iso2": "ID", "province": "Jawa Tengah", "population": "", "population_proper": "" },
  { "city": "Gambarsari", "lat": "-7.5314", "lng": "109.2014", "country": "Indonesia", "iso2": "ID", "province": "Jawa Tengah", "population": "", "population_proper": "" },
  { "city": "Margasana", "lat": "-7.5383", "lng": "109.1383", "country": "Indonesia", "iso2": "ID", "province": "Jawa Tengah", "population": "", "population_proper": "" },
  { "city": "Pesawahan", "lat": "-7.5242", "lng": "109.1678", "country": "Indonesia", "iso2": "ID", "province": "Jawa Tengah", "population": "", "population_proper": "" },
  { "city": "Tugu", "lat": "-7.5147", "lng": "109.1378", "country": "Indonesia", "iso2": "ID", "province": "Jawa Tengah", "population": "", "population_proper": "" },
  { "city": "Tengah", "lat": "-7.5553", "lng": "109.1131", "country": "Indonesia", "iso2": "ID", "province": "Jawa Tengah", "population": "", "population_proper": "" },
  { "city": "Jatilawang", "lat": "-7.5344", "lng": "109.1197", "country": "Indonesia", "iso2": "ID", "province": "Jawa Tengah", "population": "", "population_proper": "" },
  { "city": "Diwek", "lat": "-7.5917", "lng": "112.2370", "country": "Indonesia", "iso2": "ID", "province": "Jawa Timur", "population": "", "population_proper": "" },
  { "city": "Jombang", "lat": "-7.5448", "lng": "112.2360", "country": "Indonesia", "iso2": "ID", "province": "Jawa Timur", "population": "", "population_proper": "" },
  { "city": "Desa Kaler Gunungcupu", "lat": "-7.2948", "lng": "108.2298", "country": "Indonesia", "iso2": "ID", "province": "Jawa Barat", "population": "", "population_proper": "" },
  { "city": "Pemalang", "lat": "-6.9000", "lng": "109.3667", "country": "Indonesia", "iso2": "ID", "province": "Jawa Tengah", "population": "", "population_proper": "" },
  { "city": "Brak", "lat": "-7.5592", "lng": "109.2200", "country": "Indonesia", "iso2": "ID", "province": "Jawa Tengah", "population": "", "population_proper": "" },
  { "city": "Cimamut", "lat": "-7.3116", "lng": "108.2568", "country": "Indonesia", "iso2": "ID", "province": "Jawa Barat", "population": "", "population_proper": "" },
  { "city": "Doudo", "lat": "-6.9564", "lng": "112.4989", "country": "Indonesia", "iso2": "ID", "province": "Jawa Timur", "population": "", "population_proper": "" },
  { "city": "Sambipondok", "lat": "-6.9720", "lng": "112.5250", "country": "Indonesia", "iso2": "ID", "province": "Jawa Timur", "population": "", "population_proper": "" },
  { "city": "Jetis", "lat": "-6.9776", "lng": "112.4323", "country": "Indonesia", "iso2": "ID", "province": "Jawa Timur", "population": "", "population_proper": "" },
  { "city": "Sungaitinta", "lat": "-5.8452", "lng": "112.6693", "country": "Indonesia", "iso2": "ID", "province": "Jawa Timur", "population": "", "population_proper": "" },
  { "city": "Babakbawo", "lat": "-6.9886", "lng": "112.4872", "country": "Indonesia", "iso2": "ID", "province": "Jawa Timur", "population": "", "population_proper": "" },
  { "city": "Glatik", "lat": "-6.9710", "lng": "112.5386", "country": "Indonesia", "iso2": "ID", "province": "Jawa Timur", "population": "", "population_proper": "" },
  { "city": "Bulangan", "lat": "-6.9788", "lng": "112.3918", "country": "Indonesia", "iso2": "ID", "province": "Jawa Timur", "population": "", "population_proper": "" },
  { "city": "Prupuh", "lat": "-6.9127", "lng": "112.4578", "country": "Indonesia", "iso2": "ID", "province": "Jawa Timur", "population": "", "population_proper": "" },
  { "city": "Pantenan", "lat": "-6.9199", "lng": "112.4381", "country": "Indonesia", "iso2": "ID", "province": "Jawa Timur", "population": "", "population_proper": "" },
  { "city": "Madumulyorejo", "lat": "-6.9980", "lng": "112.4485", "country": "Indonesia", "iso2": "ID", "province": "Jawa Timur", "population": "", "population_proper": "" },
  { "city": "Ujungpangkah", "lat": "-6.9170", "lng": "112.5551", "country": "Indonesia", "iso2": "ID", "province": "Jawa Timur", "population": "", "population_proper": "" },
  { "city": "Sambogunung", "lat": "-6.9885", "lng": "112.4978", "country": "Indonesia", "iso2": "ID", "province": "Jawa Timur", "population": "", "population_proper": "" },
  { "city": "Bengkosobung", "lat": "-5.8462", "lng": "112.6570", "country": "Indonesia", "iso2": "ID", "province": "Jawa Timur", "population": "", "population_proper": "" },
  { "city": "Ketapang", "lat": "-6.9589", "lng": "112.5545", "country": "Indonesia", "iso2": "ID", "province": "Jawa Timur", "population": "", "population_proper": "" },
  { "city": "Krajan Pangkah Kulon", "lat": "-6.9158", "lng": "112.5541", "country": "Indonesia", "iso2": "ID", "province": "Jawa Timur", "population": "", "population_proper": "" },
  { "city": "Kertosonopilang", "lat": "-6.9856", "lng": "112.5206", "country": "Indonesia", "iso2": "ID", "province": "Jawa Timur", "population": "", "population_proper": "" },
  { "city": "Ketanen", "lat": "-6.9252", "lng": "112.4415", "country": "Indonesia", "iso2": "ID", "province": "Jawa Timur", "population": "", "population_proper": "" },
  { "city": "Mentaras", "lat": "-6.9816", "lng": "112.4469", "country": "Indonesia", "iso2": "ID", "province": "Jawa Timur", "population": "", "population_proper": "" },
  { "city": "Siwalan", "lat": "-6.9390", "lng": "112.4343", "country": "Indonesia", "iso2": "ID", "province": "Jawa Timur", "population": "", "population_proper": "" },
  { "city": "Wadeng", "lat": "-6.9664", "lng": "112.5139", "country": "Indonesia", "iso2": "ID", "province": "Jawa Timur", "population": "", "population_proper": "" },
  { "city": "Gresik", "lat": "-7.1539", "lng": "112.6561", "country": "Indonesia", "iso2": "ID", "province": "Jawa Timur", "population": "", "population_proper": "" },
  { "city": "Sidokumpul", "lat": "-6.8823", "lng": "112.4533", "country": "Indonesia", "iso2": "ID", "province": "Jawa Timur", "population": "", "population_proper": "" },
  { "city": "Golokan", "lat": "-6.9784", "lng": "112.5392", "country": "Indonesia", "iso2": "ID", "province": "Jawa Timur", "population": "", "population_proper": "" },
  { "city": "Saniwonorejo", "lat": "-6.9842", "lng": "112.4909", "country": "Indonesia", "iso2": "ID", "province": "Jawa Timur", "population": "", "population_proper": "" },
  { "city": "Tiremenggal", "lat": "-6.9979", "lng": "112.4263", "country": "Indonesia", "iso2": "ID", "province": "Jawa Timur", "population": "", "population_proper": "" },
  { "city": "Sembungan Kidul", "lat": "-7.0064", "lng": "112.5079", "country": "Indonesia", "iso2": "ID", "province": "Jawa Timur", "population": "", "population_proper": "" },
  { "city": "Kauman", "lat": "-6.9901", "lng": "112.5632", "country": "Indonesia", "iso2": "ID", "province": "Jawa Timur", "population": "", "population_proper": "" },
  { "city": "Rujing", "lat": "-5.7564", "lng": "112.6333", "country": "Indonesia", "iso2": "ID", "province": "Jawa Timur", "population": "", "population_proper": "" },
  { "city": "Asemanis", "lat": "-6.9987", "lng": "112.5755", "country": "Indonesia", "iso2": "ID", "province": "Jawa Timur", "population": "", "population_proper": "" },
  { "city": "Tambak", "lat": "-5.7321", "lng": "112.6503", "country": "Indonesia", "iso2": "ID", "province": "Jawa Timur", "population": "", "population_proper": "" },
  { "city": "Weru", "lat": "-6.8801", "lng": "112.4509", "country": "Indonesia", "iso2": "ID", "province": "Jawa Timur", "population": "", "population_proper": "" },
  { "city": "Sekapuk", "lat": "-6.9542", "lng": "112.5055", "country": "Indonesia", "iso2": "ID", "province": "Jawa Timur", "population": "", "population_proper": "" },
  { "city": "Grejeg Selatan", "lat": "-5.7540", "lng": "112.6667", "country": "Indonesia", "iso2": "ID", "province": "Jawa Timur", "population": "", "population_proper": "" },
  { "city": "Raci Kulon", "lat": "-7.0005", "lng": "112.5425", "country": "Indonesia", "iso2": "ID", "province": "Jawa Timur", "population": "", "population_proper": "" },
  { "city": "Wonokerto", "lat": "-6.9685", "lng": "112.3975", "country": "Indonesia", "iso2": "ID", "province": "Jawa Timur", "population": "", "population_proper": "" },
  { "city": "Gampeng", "lat": "-6.9365", "lng": "112.4530", "country": "Indonesia", "iso2": "ID", "province": "Jawa Timur", "population": "", "population_proper": "" },
  { "city": "Gosari", "lat": "-6.9391", "lng": "112.5095", "country": "Indonesia", "iso2": "ID", "province": "Jawa Timur", "population": "", "population_proper": "" },
  { "city": "Srowo", "lat": "-6.9838", "lng": "112.5644", "country": "Indonesia", "iso2": "ID", "province": "Jawa Timur", "population": "", "population_proper": "" },
  { "city": "Telukjati", "lat": "-5.7755", "lng": "112.6087", "country": "Indonesia", "iso2": "ID", "province": "Jawa Timur", "population": "", "population_proper": "" },
  { "city": "Petung", "lat": "-6.9725", "lng": "112.4776", "country": "Indonesia", "iso2": "ID", "province": "Jawa Timur", "population": "", "population_proper": "" },
  { "city": "Lowayu", "lat": "-6.9737", "lng": "112.4192", "country": "Indonesia", "iso2": "ID", "province": "Jawa Timur", "population": "", "population_proper": "" },
  { "city": "Pengulu", "lat": "-6.9872", "lng": "112.5634", "country": "Indonesia", "iso2": "ID", "province": "Jawa Timur", "population": "", "population_proper": "" },
  { "city": "Bangeran", "lat": "-6.9817", "lng": "112.4048", "country": "Indonesia", "iso2": "ID", "province": "Jawa Timur", "population": "", "population_proper": "" },
  { "city": "Mojosari", "lat": "-7.5194", "lng": "112.5597", "country": "Indonesia", "iso2": "ID", "province": "Jawa Timur", "population": "", "population_proper": "" },
  { "city": "Kebonagung", "lat": "-6.9435", "lng": "112.5322", "country": "Indonesia", "iso2": "ID", "province": "Jawa Timur", "population": "", "population_proper": "" },
  { "city": "Mojopetung", "lat": "-6.9803", "lng": "112.4678", "country": "Indonesia", "iso2": "ID", "province": "Jawa Timur", "population": "", "population_proper": "" },
  { "city": "Gupakan", "lat": "-6.9997", "lng": "112.5089", "country": "Indonesia", "iso2": "ID", "province": "Jawa Timur", "population": "", "population_proper": "" },
  { "city": "Banyulegi", "lat": "-6.9123", "lng": "112.5310", "country": "Indonesia", "iso2": "ID", "province": "Jawa Timur", "population": "", "population_proper": "" },
  { "city": "Suwari Timur", "lat": "-5.8154", "lng": "112.5983", "country": "Indonesia", "iso2": "ID", "province": "Jawa Timur", "population": "", "population_proper": "" },
  { "city": "Sumampir", "lat": "-6.9998", "lng": "112.4436", "country": "Indonesia", "iso2": "ID", "province": "Jawa Timur", "population": "", "population_proper": "" },
  { "city": "Sidayu", "lat": "-6.9993", "lng": "112.5636", "country": "Indonesia", "iso2": "ID", "province": "Jawa Timur", "population": "", "population_proper": "" },
  { "city": "Bunderan", "lat": "-6.9908", "lng": "112.5614", "country": "Indonesia", "iso2": "ID", "province": "Jawa Timur", "population": "", "population_proper": "" },
  { "city": "Karangrejo", "lat": "-6.9523", "lng": "112.5551", "country": "Indonesia", "iso2": "ID", "province": "Jawa Timur", "population": "", "population_proper": "" },
  { "city": "Asempapak", "lat": "-6.9950", "lng": "112.5642", "country": "Indonesia", "iso2": "ID", "province": "Jawa Timur", "population": "", "population_proper": "" },
  { "city": "Watuguling", "lat": "-6.9187", "lng": "112.4530", "country": "Indonesia", "iso2": "ID", "province": "Jawa Timur", "population": "", "population_proper": "" },
  { "city": "Wotan", "lat": "-6.9594", "lng": "112.4862", "country": "Indonesia", "iso2": "ID", "province": "Jawa Timur", "population": "", "population_proper": "" },
  { "city": "Mojoasem", "lat": "-6.9965", "lng": "112.5728", "country": "Indonesia", "iso2": "ID", "province": "Jawa Timur", "population": "", "population_proper": "" },
  { "city": "Sedagaran", "lat": "-6.9857", "lng": "112.5651", "country": "Indonesia", "iso2": "ID", "province": "Jawa Timur", "population": "", "population_proper": "" },
  { "city": "Randuboto", "lat": "-7.0034", "lng": "112.5812", "country": "Indonesia", "iso2": "ID", "province": "Jawa Timur", "population": "", "population_proper": "" },
  { "city": "Tebuwung", "lat": "-6.9813", "lng": "112.4398", "country": "Indonesia", "iso2": "ID", "province": "Jawa Timur", "population": "", "population_proper": "" },
  { "city": "Sukorejo", "lat": "-6.9820", "lng": "112.4999", "country": "Indonesia", "iso2": "ID", "province": "Jawa Timur", "population": "", "population_proper": "" },
  { "city": "Gopaan", "lat": "-7.0014", "lng": "112.5106", "country": "Indonesia", "iso2": "ID", "province": "Jawa Timur", "population": "", "population_proper": "" },
  { "city": "Bolo", "lat": "-6.9621", "lng": "112.5233", "country": "Indonesia", "iso2": "ID", "province": "Jawa Timur", "population": "", "population_proper": "" },
  { "city": "Sidomulyo", "lat": "-6.9930", "lng": "112.5644", "country": "Indonesia", "iso2": "ID", "province": "Jawa Timur", "population": "", "population_proper": "" },
  { "city": "Delegan", "lat": "-6.9008", "lng": "112.4626", "country": "Indonesia", "iso2": "ID", "province": "Jawa Timur", "population": "", "population_proper": "" },
  { "city": "Campurrejo", "lat": "-6.8843", "lng": "112.4529", "country": "Indonesia", "iso2": "ID", "province": "Jawa Timur", "population": "", "population_proper": "" },
  { "city": "Gedangan", "lat": "-6.9699", "lng": "112.4964", "country": "Indonesia", "iso2": "ID", "province": "Jawa Timur", "population": "", "population_proper": "" },
  { "city": "Waru Lor", "lat": "-6.8835", "lng": "112.4544", "country": "Indonesia", "iso2": "ID", "province": "Jawa Timur", "population": "", "population_proper": "" },
  { "city": "Sukodono", "lat": "-6.9586", "lng": "112.4567", "country": "Indonesia", "iso2": "ID", "province": "Jawa Timur", "population": "", "population_proper": "" },
  { "city": "Mriyunan", "lat": "-6.9902", "lng": "112.5664", "country": "Indonesia", "iso2": "ID", "province": "Jawa Timur", "population": "", "population_proper": "" },
  { "city": "Serah", "lat": "-6.9490", "lng": "112.4439", "country": "Indonesia", "iso2": "ID", "province": "Jawa Timur", "population": "", "population_proper": "" },
  { "city": "Banyutengah", "lat": "-6.8919", "lng": "112.4528", "country": "Indonesia", "iso2": "ID", "province": "Jawa Timur", "population": "", "population_proper": "" },
  { "city": "Purwodadi", "lat": "-6.9856", "lng": "112.5623", "country": "Indonesia", "iso2": "ID", "province": "Jawa Timur", "population": "", "population_proper": "" },
  { "city": "Cangaan", "lat": "-6.9218", "lng": "112.5058", "country": "Indonesia", "iso2": "ID", "province": "Jawa Timur", "population": "", "population_proper": "" },
  { "city": "Ngembo", "lat": "-6.9087", "lng": "112.5022", "country": "Indonesia", "iso2": "ID", "province": "Jawa Timur", "population": "", "population_proper": "" },
  { "city": "Sudimara", "lat": "-5.8325", "lng": "112.6948", "country": "Indonesia", "iso2": "ID", "province": "Jawa Timur", "population": "", "population_proper": "" },
  { "city": "Lasem", "lat": "-6.9889", "lng": "112.5075", "country": "Indonesia", "iso2": "ID", "province": "Jawa Timur", "population": "", "population_proper": "" },
  { "city": "Imaan", "lat": "-6.9849", "lng": "112.4737", "country": "Indonesia", "iso2": "ID", "province": "Jawa Timur", "population": "", "population_proper": "" },
  { "city": "Kemeduran", "lat": "-6.9160", "lng": "112.5575", "country": "Indonesia", "iso2": "ID", "province": "Jawa Timur", "population": "", "population_proper": "" },
  { "city": "Eler", "lat": "-5.7567", "lng": "112.6431", "country": "Indonesia", "iso2": "ID", "province": "Jawa Timur", "population": "", "population_proper": "" },
  { "city": "Jepara", "lat": "-6.5924", "lng": "110.6710", "country": "Indonesia", "iso2": "ID", "province": "Jawa Tengah", "population": "", "population_proper": "" },
  { "city": "Paloh", "lat": "-6.8776", "lng": "112.4484", "country": "Indonesia", "iso2": "ID", "province": "Jawa Timur", "population": "", "population_proper": "" },
  { "city": "Purbalingga", "lat": "-7.3881", "lng": "109.3639", "country": "Indonesia", "iso2": "ID", "province": "Jawa Tengah", "population": "", "population_proper": "" },
  { "city": "Mungkid", "lat": "-7.5925", "lng": "110.2189", "country": "Indonesia", "iso2": "ID", "province": "Jawa Tengah", "population": "", "population_proper": "" },
  { "city": "Purwakarta", "lat": "-6.5569", "lng": "107.4433", "country": "Indonesia", "iso2": "ID", "province": "Jawa Barat", "population": "", "population_proper": "" },
  { "city": "Bangil", "lat": "-7.5993", "lng": "112.7840", "country": "Indonesia", "iso2": "ID", "province": "Jawa Timur", "population": "", "population_proper": "" },
  { "city": "Lanpelan", "lat": "-6.9819", "lng": "113.5989", "country": "Indonesia", "iso2": "ID", "province": "Jawa Timur", "population": "", "population_proper": "" },
  { "city": "Rokem Barat", "lat": "-6.8973", "lng": "113.5316", "country": "Indonesia", "iso2": "ID", "province": "Jawa Timur", "population": "", "population_proper": "" },
  { "city": "Pogag", "lat": "-7.0638", "lng": "113.5187", "country": "Indonesia", "iso2": "ID", "province": "Jawa Timur", "population": "", "population_proper": "" },
  { "city": "Kendal", "lat": "-7.0436", "lng": "113.5874", "country": "Indonesia", "iso2": "ID", "province": "Jawa Timur", "population": "", "population_proper": "" },
  { "city": "Batuputih", "lat": "-7.1183", "lng": "113.5523", "country": "Indonesia", "iso2": "ID", "province": "Jawa Timur", "population": "", "population_proper": "" },
  { "city": "Langdulang", "lat": "-6.9508", "lng": "113.6066", "country": "Indonesia", "iso2": "ID", "province": "Jawa Timur", "population": "", "population_proper": "" },
  { "city": "Brumbung Laok", "lat": "-6.9271", "lng": "113.5165", "country": "Indonesia", "iso2": "ID", "province": "Jawa Timur", "population": "", "population_proper": "" },
  { "city": "Barajalan", "lat": "-7.1332", "lng": "113.5347", "country": "Indonesia", "iso2": "ID", "province": "Jawa Timur", "population": "", "population_proper": "" },
  { "city": "Palalang", "lat": "-7.0326", "lng": "113.5735", "country": "Indonesia", "iso2": "ID", "province": "Jawa Timur", "population": "", "population_proper": "" },
  { "city": "Bong", "lat": "-7.2261", "lng": "113.5001", "country": "Indonesia", "iso2": "ID", "province": "Jawa Timur", "population": "", "population_proper": "" },
  { "city": "Baban", "lat": "-6.9266", "lng": "113.4911", "country": "Indonesia", "iso2": "ID", "province": "Jawa Timur", "population": "", "population_proper": "" },
  { "city": "Baban", "lat": "-6.9939", "lng": "113.5221", "country": "Indonesia", "iso2": "ID", "province": "Jawa Timur", "population": "", "population_proper": "" },
  { "city": "Toampar", "lat": "-7.1310", "lng": "113.5424", "country": "Indonesia", "iso2": "ID", "province": "Jawa Timur", "population": "", "population_proper": "" },
  { "city": "Karangdalam", "lat": "-7.1888", "lng": "113.5125", "country": "Indonesia", "iso2": "ID", "province": "Jawa Timur", "population": "", "population_proper": "" },
  { "city": "Bunder", "lat": "-7.1867", "lng": "113.5297", "country": "Indonesia", "iso2": "ID", "province": "Jawa Timur", "population": "", "population_proper": "" },
  { "city": "Waru", "lat": "-6.9421", "lng": "113.5499", "country": "Indonesia", "iso2": "ID", "province": "Jawa Timur", "population": "", "population_proper": "" },
  { "city": "Masaran", "lat": "-6.9869", "lng": "113.5950", "country": "Indonesia", "iso2": "ID", "province": "Jawa Timur", "population": "", "population_proper": "" },
  { "city": "Gungguh", "lat": "-7.0350", "lng": "113.5599", "country": "Indonesia", "iso2": "ID", "province": "Jawa Timur", "population": "", "population_proper": "" },
  { "city": "Utara", "lat": "-7.1683", "lng": "113.4987", "country": "Indonesia", "iso2": "ID", "province": "Jawa Timur", "population": "", "population_proper": "" },
  { "city": "Bandungan Timur", "lat": "-6.9634", "lng": "113.4884", "country": "Indonesia", "iso2": "ID", "province": "Jawa Timur", "population": "", "population_proper": "" },
  { "city": "Lonpao Dajah", "lat": "-6.8989", "lng": "113.4891", "country": "Indonesia", "iso2": "ID", "province": "Jawa Timur", "population": "", "population_proper": "" },
  { "city": "Sekolahan", "lat": "-7.1143", "lng": "113.5829", "country": "Indonesia", "iso2": "ID", "province": "Jawa Timur", "population": "", "population_proper": "" },